{"_id": "5ebce75e80771d653f96d93e", "uuid": "linkedin|w9qvxKf7y5", "cableid": "601", "name": "Asia Pacific Gateway (APG)", "notes": "", "systemLength": "10400", "activationDateTime": "2016-09-30T22:00:00.000Z", "urls": ["https://www.submarinenetworks.com/images/figures/apg-cable-map.jpg", "https://e.vnexpress.net/news/news/two-undersea-cables-break-down-disrupt-vietnam-internet-services-4218769.html", "https://www.submarinenetworks.com/en/systems/intra-asia/apg", "https://www.submarinenetworks.com/en/stations/asia/singapore/tanah-merah", "http://www.nec.co.jp/press/en/1112/2001.html", "http://www.nec.co.jp/press/en/1112/images/2001-01-01.pdf", "https://www.submarinenetworks.com/en/systems/intra-asia/apg/apg-cable-comes-alive", "https://tuoitrenews.vn/news/society/20220727/vietnams-internet-speed-crippled-by-fresh-error-on-submarine-cable/68316.html"], "terrestrial": false, "capacityTBPS": "54.8", "litCapacity": [], "fiberPairs": "6", "category": "active", "facilities": [], "owners": [{"_id": "5ebcd71a8afb865ea6fadf0d", "name": "China Mobile International"}, {"_id": "5ebcd71e8afb865ea6fb0599", "name": "China Telecom"}, {"_id": "5ebcd71a8afb865ea6faddc8", "name": "China Unicom"}, {"_id": "5ebcd7198afb865ea6fad932", "name": "Chunghwa Telecom Co., Ltd."}, {"_id": "5ebcd71f8afb865ea6fb0ab9", "name": "KT (Korea Telecom)"}, {"_id": "5ebcd71a8afb865ea6fae000", "name": "LG Uplus Corp."}, {"_id": "5ebcd71b8afb865ea6fae4c3", "name": "Meta (Facebook)"}, {"_id": "5ebcd7218afb865ea6fb19a3", "name": "NTT"}, {"_id": "5ebcd7198afb865ea6fad93f", "name": "StarHub"}, {"_id": "5ebcd7198afb865ea6fada3c", "name": "TIME DotCom Berhad"}, {"_id": "5ebcd7208afb865ea6fb18cf", "name": "VNPT International"}, {"_id": "5ebcd7198afb865ea6fad897", "name": "Viettel Corporation"}], "tags": "", "rgDate": "2020-05-14T06:38:22.210Z", "uDate": "2024-05-18T19:30:57.347Z", "cls": [{"_id": "5ef0637c5aa1025277a806f1", "name": "Busan, KR"}, {"_id": "5ef0637c5aa1025277a80721", "name": "Chongming,  China"}, {"_id": "5ef0637c5aa1025277a80750", "name": "Danang,  Vietnam"}, {"_id": "5ef0637c5aa1025277a8084f", "name": "Kuantan,  Malaysia"}, {"_id": "5ef0637c5aa1025277a808c3", "name": "Maruyama,  Japan"}, {"_id": "5ef0637c5aa1025277a80908", "name": "Nanhui,  China"}, {"_id": "5ef0637c5aa1025277a80a09", "name": "Shima (NTT),  Japan"}, {"_id": "5ef0637c5aa1025277a80a25", "name": "Songkhla,  Thailand"}, {"_id": "5ef0637c5aa1025277a80a50", "name": "Tanah Merah,  Singapore"}, {"_id": "5ef0637c5aa1025277a80a86", "name": "Toucheng,  Taiwan"}, {"_id": "5ef0637c5aa1025277a80a98", "name": "Tseung Kwan O, CN"}], "knownUsers": [{"_id": "5ebcd71a8afb865ea6fadd63", "name": "BSO Network Solutions"}], "slug": "asia-pacific-gateway-apg", "cluster": {"type": "FeatureCollection", "features": [{"type": "Feature", "properties": {"name": "Busan", "id": "5ef0637c5aa1025277a806f1", "_id": "5ef0637c5aa1025277a806f1"}, "geometry": {"coordinates": [129.19545540493374, 35.17828141486963], "type": "Point"}}, {"type": "Feature", "properties": {"name": "Chongming", "id": "5ef0637c5aa1025277a80721", "_id": "5ef0637c5aa1025277a80721"}, "geometry": {"type": "Point", "coordinates": [121.86899092380553, 31.530015658048786]}}, {"type": "Feature", "properties": {"name": "Danang", "id": "5ef0637c5aa1025277a80750", "_id": "5ef0637c5aa1025277a80750"}, "geometry": {"type": "Point", "coordinates": [108.21475, 16.051564]}}, {"type": "Feature", "properties": {"name": "Kuantan", "id": "5ef0637c5aa1025277a8084f", "_id": "5ef0637c5aa1025277a8084f"}, "geometry": {"type": "Point", "coordinates": [103.322565, 3.815169]}}, {"type": "Feature", "properties": {"name": "Maruyama", "id": "5ef0637c5aa1025277a808c3", "_id": "5ef0637c5aa1025277a808c3"}, "geometry": {"type": "Point", "coordinates": [139.97475180448566, 35.00586226469276]}}, {"type": "Feature", "properties": {"name": "Nanhui", "id": "5ef0637c5aa1025277a80908", "_id": "5ef0637c5aa1025277a80908"}, "geometry": {"type": "Point", "coordinates": [121.191404, 30.306306]}}, {"type": "Feature", "properties": {"name": "Shima (NTT)", "id": "5ef0637c5aa1025277a80a09", "_id": "5ef0637c5aa1025277a80a09"}, "geometry": {"type": "Point", "coordinates": [136.89304694714133, 34.3553617252979]}}, {"type": "Feature", "properties": {"name": "Songkhla", "id": "5ef0637c5aa1025277a80a25", "_id": "5ef0637c5aa1025277a80a25"}, "geometry": {"type": "Point", "coordinates": [100.596956, 7.078571]}}, {"type": "Feature", "properties": {"name": "Tanah Merah", "id": "5ef0637c5aa1025277a80a50", "_id": "5ef0637c5aa1025277a80a50"}, "geometry": {"type": "Point", "coordinates": [103.946588, 1.327255]}}, {"type": "Feature", "properties": {"name": "Toucheng", "id": "5ef0637c5aa1025277a80a86", "_id": "5ef0637c5aa1025277a80a86"}, "geometry": {"coordinates": [121.8291282185052, 24.853478737099508], "type": "Point"}}, {"type": "Feature", "properties": {"name": "Tseung Kwan O", "id": "5ef0637c5aa1025277a80a98", "_id": "5ef0637c5aa1025277a80a98"}, "geometry": {"type": "Point", "coordinates": [114.258692, 22.318297]}}]}, "networks": [], "organizations": [], "alert": 0, "RFS": "October 2016"}