{"_id": "5ebce77580771d653f9705df", "uuid": "linkedin|w9qvxKf7y5", "cableid": "454", "name": "AU-Aleutian", "notes": "", "systemLength": "1311", "activationDateTime": "2022-11-30T23:00:00.000Z", "urls": ["https://www.gci.com/", "https://www.aleutianseast.org/vertical/sites/%7BEBDABE05-9D39-4ED4-98D4-908383A7714A%7D/uploads/GCI_Presentation_(12-13-17).pdf", "https://www.gci.com/aleutianfiberproject", "https://blog.gci.com/gci-awarded-25-million-federal-grant-to-bring-urban-internet-speeds-to-aleutian-communities-with-fiber-project/#:~:text=The%20AU%2DAleutians%20Fiber%20Project,and%20the%20Aleutians%20to%20Unalaska."], "terrestrial": false, "capacityTBPS": "0", "litCapacity": [], "fiberPairs": "0", "category": "active", "facilities": [], "owners": [{"_id": "5fad14a0e49af814f3704f3e", "name": "GCI Communication Corp (GCI)"}], "tags": "", "rgDate": "2020-05-14T06:38:45.517Z", "uDate": "2022-02-01T14:26:50.667Z", "cls": [{"_id": "5ef0637c5aa1025277a80660", "name": "Akutan, AK, US"}, {"_id": "5ef0637c5aa1025277a8071b", "name": "Chignik Bay, AK, US"}, {"_id": "5ef0637c5aa1025277a80720", "name": "Chignik Lagoon, AK, US"}, {"_id": "5ef0637c5aa1025277a8071d", "name": "Chignik Lake, AK, US"}, {"_id": "5ef0637c5aa1025277a8072d", "name": "Cold Bay, AK, US"}, {"_id": "5ef0637c5aa1025277a80782", "name": "False Pass, AK, US"}, {"_id": "5ef0637c5aa1025277a8082d", "name": "King Cove, AK, US"}, {"_id": "5ef0637c5aa1025277a80833", "name": "Kodiak, AK, US"}, {"_id": "5ef0637c5aa1025277a8086f", "name": "Larsen Bay, AK, US"}, {"_id": "5ef0637c5aa1025277a8095b", "name": "Perryville, AK, US"}, {"_id": "5ef0637c5aa1025277a809e1", "name": "Sand Point, AK, US"}, {"_id": "5ef0637c5aa1025277a80aac", "name": "Unalaska, AK, US"}], "slug": "au-aleutian", "knownUsers": [], "cluster": {"type": "FeatureCollection", "features": [{"type": "Feature", "properties": {"name": "Akutan, AK", "id": "5ef0637c5aa1025277a80660", "_id": "5ef0637c5aa1025277a80660"}, "geometry": {"type": "Point", "coordinates": [-165.773056, 54.135555]}}, {"type": "Feature", "properties": {"name": "Chignik Lake, AK", "id": "5ef0637c5aa1025277a8071d", "_id": "5ef0637c5aa1025277a8071d"}, "geometry": {"type": "Point", "coordinates": [-158.77209, 56.25489]}}, {"type": "Feature", "properties": {"name": "Chignik Bay, AK", "id": "5ef0637c5aa1025277a8071b", "_id": "5ef0637c5aa1025277a8071b"}, "geometry": {"type": "Point", "coordinates": [-158.408809, 56.294441]}}, {"type": "Feature", "properties": {"name": "Chignik Lagoon, AK", "id": "5ef0637c5aa1025277a80720", "_id": "5ef0637c5aa1025277a80720"}, "geometry": {"type": "Point", "coordinates": [-158.50723, 56.32126]}}, {"type": "Feature", "properties": {"name": "Cold Bay, AK", "id": "5ef0637c5aa1025277a8072d", "_id": "5ef0637c5aa1025277a8072d"}, "geometry": {"type": "Point", "coordinates": [-162.70403, 55.204048]}}, {"type": "Feature", "properties": {"name": "False Pass, AK", "id": "5ef0637c5aa1025277a80782", "_id": "5ef0637c5aa1025277a80782"}, "geometry": {"type": "Point", "coordinates": [-163.415, 54.850838]}}, {"type": "Feature", "properties": {"name": "King Cove, AK", "id": "5ef0637c5aa1025277a8082d", "_id": "5ef0637c5aa1025277a8082d"}, "geometry": {"type": "Point", "coordinates": [-162.304421, 55.049129]}}, {"type": "Feature", "properties": {"name": "Kodiak, AK", "id": "5ef0637c5aa1025277a80833", "_id": "5ef0637c5aa1025277a80833"}, "geometry": {"type": "Point", "coordinates": [-152.395148, 57.794342]}}, {"type": "Feature", "properties": {"name": "Larsen Bay, AK", "id": "5ef0637c5aa1025277a8086f", "_id": "5ef0637c5aa1025277a8086f"}, "geometry": {"type": "Point", "coordinates": [-153.985971, 57.537238]}}, {"type": "Feature", "properties": {"name": "Perryville, AK", "id": "5ef0637c5aa1025277a8095b", "_id": "5ef0637c5aa1025277a8095b"}, "geometry": {"type": "Point", "coordinates": [-159.144791, 55.917415]}}, {"type": "Feature", "properties": {"name": "Sand Point, AK", "id": "5ef0637c5aa1025277a809e1", "_id": "5ef0637c5aa1025277a809e1"}, "geometry": {"type": "Point", "coordinates": [-160.496301, 55.341451]}}, {"type": "Feature", "properties": {"name": "Unalaska, AK", "id": "5ef0637c5aa1025277a80aac", "_id": "5ef0637c5aa1025277a80aac"}, "geometry": {"type": "Point", "coordinates": [-166.533242, 53.884432]}}]}, "networks": [], "organizations": [], "alert": 0, "RFS": "December 2022"}