{"_id": "5ebce7e380771d653f981e20", "uuid": "linkedin|w9qvxKf7y5", "cableid": "748", "name": "AURORA Cable System (Non-Success)", "notes": "", "systemLength": "5500", "activationDateTime": "2022-12-31T23:00:00.000Z", "urls": ["https://fptelecoms.com/", "https://www.prnewswire.com/news-releases/fp-telecommunications-and-alcatel-submarine-networks-to-strengthen-connectivity-in-north-central-and-south-america-300538476.html", "https://www.convergencialatina.com/Section-Analysis/315814-3-9-Aurora_submarine_cable_to_start_operating_under_a_maintenance_consortium_model_in_2022_", "https://www.youtube.com/watch?v=fpMv3p5sUKc"], "terrestrial": false, "capacityTBPS": "15", "litCapacity": [], "fiberPairs": "0", "category": "active", "facilities": [], "owners": [{"_id": "5ebcd7198afb865ea6fadbf7", "name": "FP Telecommunications (FPT)"}], "tags": "", "rgDate": "2020-05-14T06:40:35.487Z", "uDate": "2022-05-09T09:41:54.110Z", "cls": [{"_id": "5ef0637c5aa1025277a8069d", "name": "Balboa,  Panama"}, {"_id": "5ef0637c5aa1025277a80aee", "name": "Canc\u00fan,  Mexico"}, {"_id": "5ef0637c5aa1025277a80731", "name": "Cartagena,  Colombia"}, {"_id": "6127502238e6c67de4882b1d", "name": "George Town, KY"}, {"_id": "5ef0637c5aa1025277a808ba", "name": "Manta,  Ecuador"}, {"_id": "5ef0637c5aa1025277a808bb", "name": "Maria Chiquita,  Panama"}, {"_id": "5ef0637c5aa1025277a80990", "name": "Puerto Barrios,  Guatemala"}, {"_id": "5ef0637c5aa1025277a80991", "name": "Puerto Cortes,  Honduras"}, {"_id": "61274e8f38e6c67de4882afd", "name": "Sarasota, FL, US"}], "slug": "aurora-cable-system-non-success", "knownUsers": [], "cluster": {"type": "FeatureCollection", "features": [{"type": "Feature", "properties": {"name": "Balboa", "id": "5ef0637c5aa1025277a8069d", "_id": "5ef0637c5aa1025277a8069d"}, "geometry": {"type": "Point", "coordinates": [-79.566679, 8.95003]}}, {"type": "Feature", "properties": {"name": "Cartagena", "id": "5ef0637c5aa1025277a80731", "_id": "5ef0637c5aa1025277a80731"}, "geometry": {"type": "Point", "coordinates": [-75.490845143795, 10.4067790843455]}}, {"type": "Feature", "properties": {"name": "Maria Chiquita", "id": "5ef0637c5aa1025277a808bb", "_id": "5ef0637c5aa1025277a808bb"}, "geometry": {"type": "Point", "coordinates": [-79.753544, 9.437334]}}, {"type": "Feature", "properties": {"name": "Manta", "id": "5ef0637c5aa1025277a808ba", "_id": "5ef0637c5aa1025277a808ba"}, "geometry": {"type": "Point", "coordinates": [-80.71619, -0.950014]}}, {"type": "Feature", "properties": {"name": "Puerto Cortes", "id": "5ef0637c5aa1025277a80991", "_id": "5ef0637c5aa1025277a80991"}, "geometry": {"type": "Point", "coordinates": [-87.94607, 15.844802]}}, {"type": "Feature", "properties": {"name": "Puerto Barrios", "id": "5ef0637c5aa1025277a80990", "_id": "5ef0637c5aa1025277a80990"}, "geometry": {"type": "Point", "coordinates": [-88.597241, 15.727138]}}, {"type": "Feature", "properties": {"name": "Canc\u00fan", "id": "5ef0637c5aa1025277a80aee", "_id": "5ef0637c5aa1025277a80aee"}, "geometry": {"type": "Point", "coordinates": [-86.8132781982422, 21.0423697218661]}}, {"type": "Feature", "properties": {"name": "Sarasota, FL", "id": "61274e8f38e6c67de4882afd", "_id": "61274e8f38e6c67de4882afd"}, "geometry": {"coordinates": [-82.45590864268247, 27.105710613741564], "type": "Point"}}, {"type": "Feature", "properties": {"name": "George Town", "id": "6127502238e6c67de4882b1d", "_id": "6127502238e6c67de4882b1d"}, "geometry": {"coordinates": [-81.38337834376816, 19.296491757381972], "type": "Point"}}]}, "networks": [], "organizations": [], "alert": 0, "RFS": null}