{"_id": "5ebce7e380771d653f981e3a", "uuid": "linkedin|w9qvxKf7y5", "cableid": "766", "name": "Cabo Verde Telecom Domestic Submarine Cable Phase 1", "notes": "", "systemLength": "0", "activationDateTime": "1996-12-31T23:00:00.000Z", "urls": [], "terrestrial": false, "capacityTBPS": "0", "litCapacity": [], "fiberPairs": "0", "category": "active", "facilities": [], "owners": [{"_id": "61ac87fe05fc356c38ced09b", "name": "Cabo Verde Telecom (CVTelecom)"}], "tags": "", "rgDate": "2020-05-14T06:40:35.553Z", "uDate": "2022-02-16T12:39:50.368Z", "cls": [{"_id": "5ef0637c5aa1025277a80900", "name": "Murdeira,  Cape Verde"}, {"_id": "5ef0637c5aa1025277a8098c", "name": "Praia,  Cape Verde"}, {"_id": "5ef0637c5aa1025277a809cf", "name": "Sal Rei,  Cape Verde"}, {"_id": "5ef0637c5aa1025277a809f4", "name": "Sao Pedro,  Cape Verde"}, {"_id": "5ef0637c5aa1025277a80a62", "name": "Tarrafal\u2014Sao Nicolau,  Cape Verde"}], "slug": "cabo-verde-telecom-domestic-submarine-cable-phase-1", "knownUsers": [], "cluster": {"type": "FeatureCollection", "features": [{"type": "Feature", "properties": {"name": "Murdeira", "id": "5ef0637c5aa1025277a80900", "_id": "5ef0637c5aa1025277a80900"}, "geometry": {"type": "Point", "coordinates": [-22.93531, 16.677113]}}, {"type": "Feature", "properties": {"name": "Praia", "id": "5ef0637c5aa1025277a8098c", "_id": "5ef0637c5aa1025277a8098c"}, "geometry": {"coordinates": [-23.494659250696802, 14.922320013845798], "type": "Point"}}, {"type": "Feature", "properties": {"name": "Sal Rei", "id": "5ef0637c5aa1025277a809cf", "_id": "5ef0637c5aa1025277a809cf"}, "geometry": {"type": "Point", "coordinates": [-22.919038, 16.177175]}}, {"type": "Feature", "properties": {"name": "Sao Pedro", "id": "5ef0637c5aa1025277a809f4", "_id": "5ef0637c5aa1025277a809f4"}, "geometry": {"type": "Point", "coordinates": [-25.060809, 16.823427]}}, {"type": "Feature", "properties": {"name": "Tarrafal\u2014Sao Nicolau", "id": "5ef0637c5aa1025277a80a62", "_id": "5ef0637c5aa1025277a80a62"}, "geometry": {"type": "Point", "coordinates": [-24.35716, 16.565883]}}]}, "networks": [], "organizations": [], "alert": 0, "RFS": null}