{"_id": "6278c06c2014851d3c21a3cf", "uuid": "linkedin|w9qvxKf7y5", "name": "Carnival Submarine Network-1 (CSN-1)", "slug": "carnival-submarine-network-1-csn-1", "notes": "", "systemLength": "4500", "activationDateTime": "2025-12-01T05:00:00.000Z", "urls": ["https://www.carnivalsubmarinenetworks.net/", "https://subtelforum.com/telconet-asn-announce-construction-of-csn-1/", "https://web.asn.com/press-release/2022-03-28-CSN1.html"], "terrestrial": false, "capacityTBPS": "0", "litCapacity": [], "fiberPairs": "0", "category": "active", "facilities": [], "owners": [{"_id": "5ebcd71b8afb865ea6fae221", "name": "Telconet"}], "knownUsers": [], "cls": [{"_id": "6278bed82014851d3c21a3c3", "name": "Ancon, EC"}, {"_id": "5ef0637c5aa1025277a806b8", "name": "Barranquilla,  Colombia"}, {"_id": "6278bf652014851d3c21a3c7", "name": "Crist\u00f3bal, PA"}, {"_id": "5ef0637c5aa1025277a80910", "name": "Naples, FL, US"}, {"_id": "5ef0637c5aa1025277a8094b", "name": "Panama City,  Panama"}], "tags": "", "rgDate": "2022-05-09T07:19:08.571Z", "uDate": "2024-05-18T22:45:00.345Z", "cluster": {"type": "FeatureCollection", "features": [{"type": "Feature", "properties": {"name": "Barranquilla", "id": "5ef0637c5aa1025277a806b8", "_id": "5ef0637c5aa1025277a806b8"}, "geometry": {"type": "Point", "coordinates": [-74.779755, 10.940459]}}, {"type": "Feature", "properties": {"name": "Naples, FL", "id": "5ef0637c5aa1025277a80910", "_id": "5ef0637c5aa1025277a80910"}, "geometry": {"type": "Point", "coordinates": [-81.795792, 26.139096]}}, {"type": "Feature", "properties": {"name": "Panama City", "id": "5ef0637c5aa1025277a8094b", "_id": "5ef0637c5aa1025277a8094b"}, "geometry": {"type": "Point", "coordinates": [-79.536699, 8.964605]}}, {"type": "Feature", "properties": {"name": "Ancon", "id": "6278bed82014851d3c21a3c3", "_id": "6278bed82014851d3c21a3c3"}, "geometry": {"coordinates": [-80.86178855571127, -2.325569151881183], "type": "Point"}}, {"type": "Feature", "properties": {"name": "Crist\u00f3bal", "id": "6278bf652014851d3c21a3c7", "_id": "6278bf652014851d3c21a3c7"}, "geometry": {"coordinates": [-79.90572584172921, 9.354954584816369], "type": "Point"}}]}, "networks": [], "organizations": [], "alert": 0, "RFS": null}