{"_id": "5ebce77580771d653f9706ab", "uuid": "linkedin|w9qvxKf7y5", "cableid": "96", "name": "Cayman-Jamaica Fiber System (CJFS)", "notes": "", "systemLength": "870", "activationDateTime": "1997-05-31T22:00:00.000Z", "urls": ["https://www.cwnetworks.com/network-systems/cjfs/", "https://ieeexplore.ieee.org/document/719690"], "terrestrial": false, "capacityTBPS": "8.4", "litCapacity": [{"year": "2021-08-25T07:30:09.653Z", "cap": 0.45}], "fiberPairs": "2", "category": "active", "facilities": [], "owners": [{"_id": "5ebcd71e8afb865ea6fb050d", "name": "C&W Networks"}], "tags": "", "rgDate": "2020-05-14T06:38:45.592Z", "uDate": "2022-04-21T13:11:18.464Z", "cls": [{"_id": "5ef0637c5aa1025277a806ed", "name": "Bull Bay,  Jamaica"}, {"_id": "5ef0637c5aa1025277a8070f", "name": "Cayman Brac,  Cayman Islands"}, {"_id": "5ef0637c5aa1025277a807c2", "name": "Half Moon Bay,  Cayman Islands"}, {"_id": "5ef0637c5aa1025277a808ee", "name": "Montego Bay,  Jamaica"}, {"_id": "5ef0637c5aa1025277a80932", "name": "Ocho Rios,  Jamaica"}, {"_id": "6125f28338e6c67de488259a", "name": "Port Antonio, JM"}], "slug": "cayman-jamaica-fiber-system-cjfs", "knownUsers": [], "cluster": {"type": "FeatureCollection", "features": [{"type": "Feature", "properties": {"name": "Bull Bay", "id": "5ef0637c5aa1025277a806ed", "_id": "5ef0637c5aa1025277a806ed"}, "geometry": {"type": "Point", "coordinates": [-76.666668, 17.949671]}}, {"type": "Feature", "properties": {"name": "Cayman Brac", "id": "5ef0637c5aa1025277a8070f", "_id": "5ef0637c5aa1025277a8070f"}, "geometry": {"type": "Point", "coordinates": [-79.877641, 19.690332]}}, {"type": "Feature", "properties": {"name": "Half Moon Bay", "id": "5ef0637c5aa1025277a807c2", "_id": "5ef0637c5aa1025277a807c2"}, "geometry": {"type": "Point", "coordinates": [-81.166776, 19.282959]}}, {"type": "Feature", "properties": {"name": "Montego Bay", "id": "5ef0637c5aa1025277a808ee", "_id": "5ef0637c5aa1025277a808ee"}, "geometry": {"type": "Point", "coordinates": [-77.92138, 18.469361]}}, {"type": "Feature", "properties": {"name": "Ocho Rios", "id": "5ef0637c5aa1025277a80932", "_id": "5ef0637c5aa1025277a80932"}, "geometry": {"type": "Point", "coordinates": [-77.103228, 18.398573]}}, {"type": "Feature", "properties": {"name": "Port Antonio", "id": "6125f28338e6c67de488259a", "_id": "6125f28338e6c67de488259a"}, "geometry": {"coordinates": [-76.43733434629313, 18.184546921924593], "type": "Point"}}]}, "networks": [], "organizations": [], "alert": 0, "RFS": "June 1997"}