{"_id": "5ebce77580771d653f970594", "uuid": "linkedin|w9qvxKf7y5", "cableid": "36", "name": "Eastern Caribbean Fiber System (ECFS)", "notes": "", "systemLength": "1714", "activationDateTime": "1995-08-31T22:00:00.000Z", "urls": ["http://en.wikipedia.org/wiki/ECFS_(cable_system)", "https://www.internetsociety.org/wp-content/uploads/2017/08/ISOC_Small_Island_Developing_States-201706015.pdf", "https://en.wikipedia.org/wiki/ECFS_(cable_system)", "https://southern-caribbean.com/description-of-scf-network.html", "https://www.cwnetworks.com/network-systems/ecfs/", "https://web.archive.org/web/20090912155515/http://www1.alcatel-lucent.com/submarine/refs/cibles/car/ecfs.htm"], "terrestrial": false, "capacityTBPS": "3.4", "litCapacity": [], "fiberPairs": "0", "category": "active", "facilities": [], "owners": [{"_id": "5ebcd71e8afb865ea6fb05b5", "name": "AT&T"}, {"_id": "5ebcd71e8afb865ea6fb050d", "name": "C&W Networks"}, {"_id": "5ebcd71e8afb865ea6fb0517", "name": "Claro Dominicana (Codetel)"}, {"_id": "5ebcd7218afb865ea6fb1935", "name": "Guyana Telephone and Telegraph (GT&T)"}, {"_id": "5ebcd71b8afb865ea6fae569", "name": "Orange"}, {"_id": "5ebcd7218afb865ea6fb195d", "name": "Verizon"}], "tags": "", "rgDate": "2020-05-14T06:38:45.490Z", "uDate": "2024-05-18T19:28:32.716Z", "cls": [{"_id": "5ef0637c5aa1025277a806b6", "name": "Basseterre,  Saint Kitts and Nevis"}, {"_id": "5ef0637c5aa1025277a806e1", "name": "Bridgetown,  Barbados"}, {"_id": "5ef0637c5aa1025277a80707", "name": "Castries,  Saint Lucia"}, {"_id": "5ef0637c5aa1025277a80712", "name": "Chaguaramas,  Trinidad and Tobago"}, {"_id": "5ef0637c5aa1025277a8082c", "name": "Kingstown,  Saint Vincent and the Grenadines"}, {"_id": "5ef0637c5aa1025277a80878", "name": "Le Lamentin,  Martinique"}, {"_id": "5ef0637c5aa1025277a8097b", "name": "Point Salines,  Grenada"}, {"_id": "5ef0637c5aa1025277a8096a", "name": "Pointe-a-Pitre,  Guadeloupe"}, {"_id": "5ef0637c5aa1025277a809c0", "name": "Roseau,  Dominica"}, {"_id": "5ef0637c5aa1025277a809c7", "name": "Saint Maarten,  Sint Maarten"}, {"_id": "5ef0637c5aa1025277a80a2c", "name": "St. John\u2019s,  Antigua and Barbuda"}, {"_id": "5ef0637c5aa1025277a80a6a", "name": "The Valley,  Anguilla"}, {"_id": "5ef0637c5aa1025277a80a88", "name": "Tortola,  Virgin Islands (U.K.)"}], "slug": "eastern-caribbean-fiber-system-ecfs", "knownUsers": [], "cluster": {"type": "FeatureCollection", "features": [{"type": "Feature", "properties": {"name": "Basseterre", "id": "5ef0637c5aa1025277a806b6", "_id": "5ef0637c5aa1025277a806b6"}, "geometry": {"type": "Point", "coordinates": [-62.731226, 17.298451]}}, {"type": "Feature", "properties": {"name": "Bridgetown", "id": "5ef0637c5aa1025277a806e1", "_id": "5ef0637c5aa1025277a806e1"}, "geometry": {"type": "Point", "coordinates": [-59.613356, 13.098954]}}, {"type": "Feature", "properties": {"name": "Castries", "id": "5ef0637c5aa1025277a80707", "_id": "5ef0637c5aa1025277a80707"}, "geometry": {"type": "Point", "coordinates": [-61.006813, 13.994217]}}, {"type": "Feature", "properties": {"name": "Chaguaramas", "id": "5ef0637c5aa1025277a80712", "_id": "5ef0637c5aa1025277a80712"}, "geometry": {"type": "Point", "coordinates": [-61.650806, 10.686162]}}, {"type": "Feature", "properties": {"name": "Kingstown", "id": "5ef0637c5aa1025277a8082c", "_id": "5ef0637c5aa1025277a8082c"}, "geometry": {"type": "Point", "coordinates": [-61.208253, 13.145438]}}, {"type": "Feature", "properties": {"name": "Le Lamentin", "id": "5ef0637c5aa1025277a80878", "_id": "5ef0637c5aa1025277a80878"}, "geometry": {"type": "Point", "coordinates": [-61.094264, 14.615542]}}, {"type": "Feature", "properties": {"name": "Pointe-a-Pitre", "id": "5ef0637c5aa1025277a8096a", "_id": "5ef0637c5aa1025277a8096a"}, "geometry": {"type": "Point", "coordinates": [-61.533082, 16.241042]}}, {"type": "Feature", "properties": {"name": "Point Salines", "id": "5ef0637c5aa1025277a8097b", "_id": "5ef0637c5aa1025277a8097b"}, "geometry": {"type": "Point", "coordinates": [-61.790577, 12.008817]}}, {"type": "Feature", "properties": {"name": "Roseau", "id": "5ef0637c5aa1025277a809c0", "_id": "5ef0637c5aa1025277a809c0"}, "geometry": {"type": "Point", "coordinates": [-61.370728, 15.251797]}}, {"type": "Feature", "properties": {"name": "Saint Maarten", "id": "5ef0637c5aa1025277a809c7", "_id": "5ef0637c5aa1025277a809c7"}, "geometry": {"type": "Point", "coordinates": [-63.073706, 18.031043]}}, {"type": "Feature", "properties": {"name": "St. John\u2019s", "id": "5ef0637c5aa1025277a80a2c", "_id": "5ef0637c5aa1025277a80a2c"}, "geometry": {"coordinates": [-61.84403443580294, 17.11882068214331], "type": "Point"}}, {"type": "Feature", "properties": {"name": "The Valley", "id": "5ef0637c5aa1025277a80a6a", "_id": "5ef0637c5aa1025277a80a6a"}, "geometry": {"type": "Point", "coordinates": [-63.057202, 18.217408]}}, {"type": "Feature", "properties": {"name": "Tortola", "id": "5ef0637c5aa1025277a80a88", "_id": "5ef0637c5aa1025277a80a88"}, "geometry": {"type": "Point", "coordinates": [-64.63359373502936, 18.43663018761082]}}]}, "networks": [], "organizations": [], "alert": 0, "RFS": "September 1995"}