{"_id": "612391239da54a65305fa758", "uuid": "linkedin|w9qvxKf7y5", "name": "Eastern Arctic Undersea Fibre Optic Network (EAUFON)", "slug": "eastern-arctic-undersea-fibre-optic-network-eaufon", "notes": "", "systemLength": "2070", "activationDateTime": "2021-12-31T23:00:00.000Z", "urls": ["https://www.krg.ca/en-CA/assets/Council/EAUFON-en.pptx", "https://web.asn.com/en/press-release/eaufon.html", "https://nunatsiaq.com/stories/article/work-on-nunaviks-fibre-optic-network-starts-in-july/", "https://twitter.com/philBE2/status/1437055450369961985"], "terrestrial": false, "capacityTBPS": "20", "litCapacity": [], "fiberPairs": "2", "category": "active", "facilities": [], "owners": [{"_id": "612391199da54a65305fa754", "name": "Kativik Regional Government (KRG)"}], "knownUsers": [], "cls": [{"_id": "61238fe09da54a65305fa749", "name": "Chisasibi, QC, CA"}, {"_id": "61238f899da54a65305fa741", "name": "Inukjuak, QC, CA"}, {"_id": "61238fc09da54a65305fa747", "name": "Kuujjuarapik, QC, CA"}, {"_id": "61238f659da54a65305fa73e", "name": "Puvirnituq, QC, CA"}, {"_id": "61238fa29da54a65305fa744", "name": "Umiujaq, QC, CA"}], "tags": "", "rgDate": "2021-08-23T12:14:27.056Z", "uDate": "2021-09-22T12:49:03.175Z", "cluster": {"type": "FeatureCollection", "features": [{"type": "Feature", "properties": {"name": "Puvirnituq, QC", "id": "61238f659da54a65305fa73e", "_id": "61238f659da54a65305fa73e"}, "geometry": {"coordinates": [-77.27224231785942, 60.036081859175994], "type": "Point"}}, {"type": "Feature", "properties": {"name": "Inukjuak, QC", "id": "61238f899da54a65305fa741", "_id": "61238f899da54a65305fa741"}, "geometry": {"coordinates": [-78.11656596357211, 58.45003712308983], "type": "Point"}}, {"type": "Feature", "properties": {"name": "Umiujaq, QC", "id": "61238fa29da54a65305fa744", "_id": "61238fa29da54a65305fa744"}, "geometry": {"coordinates": [-76.5530041950847, 56.55349757099353], "type": "Point"}}, {"type": "Feature", "properties": {"name": "Kuujjuarapik, QC", "id": "61238fc09da54a65305fa747", "_id": "61238fc09da54a65305fa747"}, "geometry": {"coordinates": [-77.76723962104181, 55.28235237395947], "type": "Point"}}, {"type": "Feature", "properties": {"name": "Chisasibi, QC", "id": "61238fe09da54a65305fa749", "_id": "61238fe09da54a65305fa749"}, "geometry": {"coordinates": [-78.90619458806444, 53.80410054090615], "type": "Point"}}]}, "networks": [], "organizations": [], "alert": 0, "RFS": null}