{"_id": "5ebce77580771d653f9706a2", "uuid": "linkedin|w9qvxKf7y5", "cableid": "61", "name": "Europe India Gateway (EIG)", "notes": "", "systemLength": "15000", "activationDateTime": "2011-01-31T23:00:00.000Z", "urls": ["http://en.wikipedia.org/wiki/EIG_(cable_system)", "http://www.europeindiagateway.com", "https://www.vodafone.com/business/carrier-services/connectivity/submarine-terrestrial-cable/EIG", "https://www.submarinenetworks.com/images/eig-connectivity.jpg", "https://www.capacitymedia.com/articles/3824959/europe-india-gateway-cable-boosts-capacity-to-28tbps"], "terrestrial": false, "capacityTBPS": "28", "litCapacity": [], "fiberPairs": "3", "category": "active", "facilities": [], "owners": [{"_id": "5ebcd71e8afb865ea6fb05b5", "name": "AT&T"}, {"_id": "5ebcd7218afb865ea6fb19a6", "name": "Airtel (Bharti)"}, {"_id": "5ebcd71e8afb865ea6fb050e", "name": "Altice Portugal (fka Portugal Telecom)"}, {"_id": "5ebcd71e8afb865ea6fb0557", "name": "BT"}, {"_id": "5f34f06904720472e5dd6aee", "name": "Bharat Sanchar Nigam Ltd. (BSNL)"}, {"_id": "5ebcd71c8afb865ea6faf272", "name": "Djibouti Telecom S.A."}, {"_id": "5f58a0b007081411e94b757c", "name": "Gibtelecom"}, {"_id": "5ebcd7208afb865ea6fb18dd", "name": "Libya International Telecommunications Company"}, {"_id": "5ebcd7218afb865ea6fb1979", "name": "MTN Group"}, {"_id": "5ebcd71a8afb865ea6faddcf", "name": "Oman Telecommunications Company (Omantel)"}, {"_id": "5ebcd71b8afb865ea6fae77b", "name": "Saudi Telecom Company (STC)"}, {"_id": "5ebcd71f8afb865ea6fb084b", "name": "Telecom Egypt"}, {"_id": "5ebcd71a8afb865ea6fae036", "name": "Telkom South Africa (Telkom SA)"}, {"_id": "5ebcd7218afb865ea6fb195d", "name": "Verizon"}, {"_id": "5ebcd7208afb865ea6fb18d6", "name": "Vodafone Carrier Services"}, {"_id": "5ebcd71a8afb865ea6fade07", "name": "du (Emirates Integrated Telecommunication Company PJSC)"}], "tags": "", "rgDate": "2020-05-14T06:38:45.589Z", "uDate": "2022-06-20T09:35:13.694Z", "cls": [{"_id": "5ef0637c5aa1025277a80652", "name": "Abu Talat 1,  Egypt"}, {"_id": "5ef0637c5aa1025277a806b7", "name": "Barka,  Oman"}, {"_id": "5ef0637c5aa1025277a806e6", "name": "Bude,  United Kingdom"}, {"_id": "5ef0637c5aa1025277a80792", "name": "Fujairah,  United Arab Emirates"}, {"_id": "5ef0637c5aa1025277a807a6", "name": "Gibraltar,  Gibraltar"}, {"_id": "5f2bd6c604720472e5dd44c9", "name": "Haramous, DJ"}, {"_id": "5ef0637c5aa1025277a807fa", "name": "Jeddah,  Saudi Arabia"}, {"_id": "5ef0637c5aa1025277a808eb", "name": "Monaco,  Monaco"}, {"_id": "5ef0637c5aa1025277a808f9", "name": "Mumbai,  India"}, {"_id": "5ef0637c5aa1025277a80a03", "name": "Sesimbra,  Portugal"}, {"_id": "5ef0637c5aa1025277a80a8e", "name": "Tripoli,  Libya"}, {"_id": "5ef0637c5aa1025277a80ae8", "name": "Zafarana 1,  Egypt"}], "knownUsers": [{"_id": "5ebcd71a8afb865ea6fadd63", "name": "BSO Network Solutions"}, {"_id": "5ebcd7208afb865ea6fb162f", "name": "Gulf Bridge International (GBI)"}], "slug": "europe-india-gateway-eig", "cluster": {"type": "FeatureCollection", "features": [{"type": "Feature", "properties": {"name": "Abu Talat 1", "id": "5ef0637c5aa1025277a80652", "_id": "5ef0637c5aa1025277a80652"}, "geometry": {"coordinates": [29.692208710442625, 31.035468104425153], "type": "Point"}}, {"type": "Feature", "properties": {"name": "Barka", "id": "5ef0637c5aa1025277a806b7", "_id": "5ef0637c5aa1025277a806b7"}, "geometry": {"coordinates": [57.893689891457655, 23.708617627311767], "type": "Point"}}, {"type": "Feature", "properties": {"name": "Bude", "id": "5ef0637c5aa1025277a806e6", "_id": "5ef0637c5aa1025277a806e6"}, "geometry": {"coordinates": [-4.541133928268528, 50.82085317169804], "type": "Point"}}, {"type": "Feature", "properties": {"name": "Fujairah", "id": "5ef0637c5aa1025277a80792", "_id": "5ef0637c5aa1025277a80792"}, "geometry": {"type": "Point", "coordinates": [56.33372, 25.12169]}}, {"type": "Feature", "properties": {"name": "Gibraltar", "id": "5ef0637c5aa1025277a807a6", "_id": "5ef0637c5aa1025277a807a6"}, "geometry": {"type": "Point", "coordinates": [-5.347672, 36.155937]}}, {"type": "Feature", "properties": {"name": "Jeddah", "id": "5ef0637c5aa1025277a807fa", "_id": "5ef0637c5aa1025277a807fa"}, "geometry": {"type": "Point", "coordinates": [39.182751, 21.481262]}}, {"type": "Feature", "properties": {"name": "Monaco", "id": "5ef0637c5aa1025277a808eb", "_id": "5ef0637c5aa1025277a808eb"}, "geometry": {"type": "Point", "coordinates": [7.417642, 43.732618]}}, {"type": "Feature", "properties": {"name": "Mumbai", "id": "5ef0637c5aa1025277a808f9", "_id": "5ef0637c5aa1025277a808f9"}, "geometry": {"type": "Point", "coordinates": [72.875899, 19.075794]}}, {"type": "Feature", "properties": {"name": "Sesimbra", "id": "5ef0637c5aa1025277a80a03", "_id": "5ef0637c5aa1025277a80a03"}, "geometry": {"type": "Point", "coordinates": [-9.102761575795038, 38.44306669749373]}}, {"type": "Feature", "properties": {"name": "Tripoli", "id": "5ef0637c5aa1025277a80a8e", "_id": "5ef0637c5aa1025277a80a8e"}, "geometry": {"type": "Point", "coordinates": [13.187268, 32.877301]}}, {"type": "Feature", "properties": {"name": "Zafarana 1", "id": "5ef0637c5aa1025277a80ae8", "_id": "5ef0637c5aa1025277a80ae8"}, "geometry": {"type": "Point", "coordinates": [32.649844, 29.116683]}}, {"type": "Feature", "properties": {"name": "Haramous", "id": "5f2bd6c604720472e5dd44c9", "_id": "5f2bd6c604720472e5dd44c9"}, "geometry": {"coordinates": [43.16107560158102, 11.572998622496357], "type": "Point"}}]}, "networks": [], "organizations": [], "alert": 0, "RFS": "February 2011"}