{"_id": "6183be0005fc356c38ce4d6d", "uuid": "linkedin|w9qvxKf7y5", "name": "Hawaiki Nui", "slug": "hawaiki-nui", "notes": "", "systemLength": "25000", "activationDateTime": "2024-12-31T23:00:00.000Z", "urls": ["https://twitter.com/philBE2/status/1456085467267485697", "https://www.hawaiki.co.nz/news-and-updates/hawaiki-announces-new-trans-pacific-cable-system-selects-moratelindo-as-indonesian-partner/", "https://www.hawaiki.co.nz/content/uploads/2021/11/2021-11-01-hawaikinui-1-1024x629.png", "https://www.submarinenetworks.com/en/systems/trans-pacific/hawaiki-nui/hawaiki-announces-hawaiki-nui-submarine-cable-system", "https://bw-group.com/newsroom/articles/2022/05/bw-digital-completes-acquisition-of-hawaiki-submarine-cable/"], "terrestrial": false, "capacityTBPS": "240", "litCapacity": [], "fiberPairs": "12", "category": "active", "facilities": [], "owners": [{"_id": "5f917a2527df1d0740043db8", "name": "Hawaiki Submarine Cable LP"}], "knownUsers": [], "cls": [{"_id": "5ef0637c5aa1025277a806bc", "name": "Batam,  Indonesia"}, {"_id": "6183ba4405fc356c38ce4d40", "name": "Brisbane, QLD, AU"}, {"_id": "6183baf205fc356c38ce4d59", "name": "Christchurch, NZ"}, {"_id": "5ef0637c5aa1025277a80751", "name": "Darwin, NT,  Australia"}, {"_id": "6183bacd05fc356c38ce4d56", "name": "Dunedin, NZ"}, {"_id": "6183baa205fc356c38ce4d50", "name": "Invercargill, NZ"}, {"_id": "5ef0637c5aa1025277a807f9", "name": "Jakarta,  Indonesia"}, {"_id": "5ef0637c5aa1025277a80807", "name": "Kapolei, HI, US"}, {"_id": "5ef0637c5aa1025277a8080f", "name": "Kawaihae, HI, US"}, {"_id": "5ef0637c5aa1025277a8088d", "name": "Los Angeles, CA, US"}, {"_id": "6183ba7605fc356c38ce4d49", "name": "Melbourne, VIC, AU"}, {"_id": "5ef0637c5aa1025277a80a12", "name": "Singapore,  Singapore"}, {"_id": "5ef0637c5aa1025277a80a44", "name": "Sydney, NSW,  Australia"}], "tags": "", "rgDate": "2021-11-04T11:03:28.313Z", "uDate": "2022-05-19T09:15:05.059Z", "cluster": {"type": "FeatureCollection", "features": [{"type": "Feature", "properties": {"name": "Batam", "id": "5ef0637c5aa1025277a806bc", "_id": "5ef0637c5aa1025277a806bc"}, "geometry": {"type": "Point", "coordinates": [103.962506, 1.134726]}}, {"type": "Feature", "properties": {"name": "Darwin, NT", "id": "5ef0637c5aa1025277a80751", "_id": "5ef0637c5aa1025277a80751"}, "geometry": {"type": "Point", "coordinates": [130.843157, -12.467489]}}, {"type": "Feature", "properties": {"name": "Jakarta", "id": "5ef0637c5aa1025277a807f9", "_id": "5ef0637c5aa1025277a807f9"}, "geometry": {"type": "Point", "coordinates": [106.827836, -6.171594]}}, {"type": "Feature", "properties": {"name": "Kapolei, HI", "id": "5ef0637c5aa1025277a80807", "_id": "5ef0637c5aa1025277a80807"}, "geometry": {"type": "Point", "coordinates": [-158.056901, 21.335424]}}, {"type": "Feature", "properties": {"name": "Kawaihae, HI", "id": "5ef0637c5aa1025277a8080f", "_id": "5ef0637c5aa1025277a8080f"}, "geometry": {"coordinates": [-155.81307770644372, 20.00512415775907], "type": "Point"}}, {"type": "Feature", "properties": {"name": "Los Angeles, CA", "id": "5ef0637c5aa1025277a8088d", "_id": "5ef0637c5aa1025277a8088d"}, "geometry": {"type": "Point", "coordinates": [-118.245335, 34.053485]}}, {"type": "Feature", "properties": {"name": "Singapore", "id": "5ef0637c5aa1025277a80a12", "_id": "5ef0637c5aa1025277a80a12"}, "geometry": {"type": "Point", "coordinates": [103.853033, 1.293661]}}, {"type": "Feature", "properties": {"name": "Sydney, NSW", "id": "5ef0637c5aa1025277a80a44", "_id": "5ef0637c5aa1025277a80a44"}, "geometry": {"type": "Point", "coordinates": [151.207039, -33.869701]}}, {"type": "Feature", "properties": {"name": "Brisbane, QLD", "id": "6183ba4405fc356c38ce4d40", "_id": "6183ba4405fc356c38ce4d40"}, "geometry": {"coordinates": [153.08578332099574, -27.235235099931003], "type": "Point"}}, {"type": "Feature", "properties": {"name": "Melbourne, VIC", "id": "6183ba7605fc356c38ce4d49", "_id": "6183ba7605fc356c38ce4d49"}, "geometry": {"coordinates": [144.9759012697868, -38.413200949107335], "type": "Point"}}, {"type": "Feature", "properties": {"name": "Invercargill", "id": "6183baa205fc356c38ce4d50", "_id": "6183baa205fc356c38ce4d50"}, "geometry": {"coordinates": [168.26643519886238, -46.41678735266791], "type": "Point"}}, {"type": "Feature", "properties": {"name": "Dunedin", "id": "6183bacd05fc356c38ce4d56", "_id": "6183bacd05fc356c38ce4d56"}, "geometry": {"coordinates": [170.50869090546718, -45.90750385455112], "type": "Point"}}, {"type": "Feature", "properties": {"name": "Christchurch", "id": "6183baf205fc356c38ce4d59", "_id": "6183baf205fc356c38ce4d59"}, "geometry": {"coordinates": [172.72716474727576, -43.51805421222426], "type": "Point"}}]}, "networks": [], "organizations": [], "alert": 0, "RFS": null}