{"_id": "5ebce77580771d653f97055e", "uuid": "linkedin|w9qvxKf7y5", "cableid": "200", "name": "HONOTUA", "notes": "", "systemLength": "4658", "activationDateTime": "2010-08-31T22:00:00.000Z", "urls": ["https://www.submarinenetworks.com/systems/trans-pacific/honutua", "https://en.wikipedia.org/wiki/Honotua", "https://web.archive.org/web/20120219235145/http://www.opt.pf/groupe_opt/honotua_projet.php#", "https://web.archive.org/web/20120222010837/http://www.opt.pf/groupe_opt/honotua/index.php", "https://www.submarinenetworks.com/en/systems/trans-pacific/honutua/honutua-landing-on-big-island", "https://www.submarinenetworks.com/en/stations/north-america/usa-hawaii/kawaihae"], "terrestrial": false, "capacityTBPS": "0.32", "litCapacity": [{"year": "2010-12-31T23:00:00.000Z", "cap": 0.005}], "fiberPairs": "1", "category": "active", "facilities": [], "owners": [{"_id": "6121f2059da54a65305fa34a", "name": "OPT French Polynesia"}], "tags": "", "rgDate": "2020-05-14T06:38:45.449Z", "uDate": "2022-04-21T08:29:18.258Z", "cls": [{"_id": "5ef0637c5aa1025277a807e1", "name": "Huahine,  French Polynesia"}, {"_id": "5ef0637c5aa1025277a8080f", "name": "Kawaihae, HI, US"}, {"_id": "5ef0637c5aa1025277a808ef", "name": "Moorea,  French Polynesia"}, {"_id": "5ef0637c5aa1025277a8094f", "name": "Papenoo,  French Polynesia"}, {"_id": "5ef0637c5aa1025277a80aae", "name": "Uturoa,  French Polynesia"}, {"_id": "5ef0637c5aa1025277a80ab4", "name": "Vaitape,  French Polynesia"}], "slug": "honotua", "knownUsers": [], "cluster": {"type": "FeatureCollection", "features": [{"type": "Feature", "properties": {"name": "Huahine", "id": "5ef0637c5aa1025277a807e1", "_id": "5ef0637c5aa1025277a807e1"}, "geometry": {"type": "Point", "coordinates": [-151.000068, -16.730061]}}, {"type": "Feature", "properties": {"name": "Kawaihae, HI", "id": "5ef0637c5aa1025277a8080f", "_id": "5ef0637c5aa1025277a8080f"}, "geometry": {"coordinates": [-155.81307770644372, 20.00512415775907], "type": "Point"}}, {"type": "Feature", "properties": {"name": "Moorea", "id": "5ef0637c5aa1025277a808ef", "_id": "5ef0637c5aa1025277a808ef"}, "geometry": {"type": "Point", "coordinates": [-149.829561, -17.538776]}}, {"type": "Feature", "properties": {"name": "Papenoo", "id": "5ef0637c5aa1025277a8094f", "_id": "5ef0637c5aa1025277a8094f"}, "geometry": {"type": "Point", "coordinates": [-149.441084, -17.512336]}}, {"type": "Feature", "properties": {"name": "Uturoa", "id": "5ef0637c5aa1025277a80aae", "_id": "5ef0637c5aa1025277a80aae"}, "geometry": {"type": "Point", "coordinates": [-151.443037, -16.730915]}}, {"type": "Feature", "properties": {"name": "Vaitape", "id": "5ef0637c5aa1025277a80ab4", "_id": "5ef0637c5aa1025277a80ab4"}, "geometry": {"type": "Point", "coordinates": [-151.749531, -16.506281]}}]}, "networks": [], "organizations": [], "alert": 0, "RFS": "September 2010"}