{"_id": "6278bb7e2014851d3c21a3a4", "uuid": "linkedin|w9qvxKf7y5", "name": "Jakarta-Bangka-Batam-Singapore (B2JS) Cable System", "slug": "jakarta-bangka-batam-singapore-b2js-cable-system", "notes": "", "systemLength": "759", "activationDateTime": "2013-03-31T22:00:00.000Z", "urls": ["https://triasmitra.com/index.php/our-work-protfolio/our-work-developer-project/16-portfolio-carousels/50-b2js-jakarta-bangka-batam-singapore", "https://www.triasmitra.com/index.php/our-work-protfolio/our-work-developer-project/74-b2js-jakarta-bangka-batam-singapore-2", "https://www.triasmitra.com/images/2022/image/project/developer/b2js.png"], "terrestrial": false, "capacityTBPS": "0.38", "litCapacity": [], "fiberPairs": "12", "category": "active", "facilities": [], "owners": [{"_id": "5ebcd7218afb865ea6fb1999", "name": "Triasmitra"}], "knownUsers": [], "cls": [{"_id": "5ef0637c5aa1025277a806bc", "name": "Batam,  Indonesia"}, {"_id": "5ef0637c5aa1025277a806ba", "name": "Batu Prahu,  Indonesia"}, {"_id": "5ef0637c5aa1025277a807f9", "name": "Jakarta,  Indonesia"}, {"_id": "5ef0637c5aa1025277a8095d", "name": "Pesaren,  Indonesia"}, {"_id": "5ef0637c5aa1025277a80a50", "name": "Tanah Merah,  Singapore"}], "tags": "", "rgDate": "2022-05-09T06:58:06.534Z", "uDate": "2022-05-09T06:58:06.534Z", "cluster": {"type": "FeatureCollection", "features": [{"type": "Feature", "properties": {"name": "Batu Prahu", "id": "5ef0637c5aa1025277a806ba", "_id": "5ef0637c5aa1025277a806ba"}, "geometry": {"type": "Point", "coordinates": [106.547465, -3.079921]}}, {"type": "Feature", "properties": {"name": "Batam", "id": "5ef0637c5aa1025277a806bc", "_id": "5ef0637c5aa1025277a806bc"}, "geometry": {"type": "Point", "coordinates": [103.962506, 1.134726]}}, {"type": "Feature", "properties": {"name": "Jakarta", "id": "5ef0637c5aa1025277a807f9", "_id": "5ef0637c5aa1025277a807f9"}, "geometry": {"type": "Point", "coordinates": [106.827836, -6.171594]}}, {"type": "Feature", "properties": {"name": "Pesaren", "id": "5ef0637c5aa1025277a8095d", "_id": "5ef0637c5aa1025277a8095d"}, "geometry": {"coordinates": [105.72617836681275, -1.5331317787894951], "type": "Point"}}, {"type": "Feature", "properties": {"name": "Tanah Merah", "id": "5ef0637c5aa1025277a80a50", "_id": "5ef0637c5aa1025277a80a50"}, "geometry": {"type": "Point", "coordinates": [103.946588, 1.327255]}}]}, "networks": [], "organizations": [], "alert": 0, "RFS": "April 2013"}