{"_id": "5ebce77580771d653f970677", "uuid": "linkedin|w9qvxKf7y5", "cableid": "562", "name": "JaKa2LaDeMa", "notes": "", "systemLength": "1800", "activationDateTime": "2010-03-31T22:00:00.000Z", "urls": ["https://www.fujitsu.com/global/about/resources/news/press-releases/2013/1220-01.html", "https://www.nsw.com/en/fujitsu-and-nsw-complete-indonesian-submarine-fiber-optic-network/", "https://atlantic-cable.com/Cables/CableTimeLine/index2001.htm"], "terrestrial": false, "capacityTBPS": "9.6", "litCapacity": [], "fiberPairs": "3", "category": "active", "facilities": [], "owners": [{"_id": "5ebcd7218afb865ea6fb196c", "name": "Telkom Indonesia"}], "tags": "", "rgDate": "2020-05-14T06:38:45.574Z", "uDate": "2022-05-03T06:56:13.700Z", "cls": [{"_id": "5ef0637c5aa1025277a806b4", "name": "Banjarmasin,  Indonesia"}, {"_id": "5ef0637c5aa1025277a806c4", "name": "Beculuk,  Indonesia"}, {"_id": "62011d2c12b8ed7497b0680e", "name": "Denpasar, ID"}, {"_id": "62011cbe12b8ed7497b06809", "name": "Gianyar, ID"}, {"_id": "5ef0637c5aa1025277a80821", "name": "Ketapang,  Indonesia"}, {"_id": "5ef0637c5aa1025277a808cc", "name": "Mataram,  Indonesia"}, {"_id": "5ef0637c5aa1025277a8094e", "name": "Pankalan,  Indonesia"}, {"_id": "5ef0637c5aa1025277a8096d", "name": "Pontianak,  Indonesia"}, {"_id": "5ef0637c5aa1025277a809e7", "name": "Sangatta,  Indonesia"}, {"_id": "5ef0637c5aa1025277a80a8d", "name": "Toweli,  Indonesia"}], "slug": "jaka2ladema", "knownUsers": [], "cluster": {"type": "FeatureCollection", "features": [{"type": "Feature", "properties": {"name": "Banjarmasin", "id": "5ef0637c5aa1025277a806b4", "_id": "5ef0637c5aa1025277a806b4"}, "geometry": {"type": "Point", "coordinates": [114.604005, -3.327967]}}, {"type": "Feature", "properties": {"name": "Beculuk", "id": "5ef0637c5aa1025277a806c4", "_id": "5ef0637c5aa1025277a806c4"}, "geometry": {"type": "Point", "coordinates": [114.097071, -8.615636]}}, {"type": "Feature", "properties": {"name": "Ketapang", "id": "5ef0637c5aa1025277a80821", "_id": "5ef0637c5aa1025277a80821"}, "geometry": {"type": "Point", "coordinates": [109.971878, -1.85912]}}, {"type": "Feature", "properties": {"name": "Mataram", "id": "5ef0637c5aa1025277a808cc", "_id": "5ef0637c5aa1025277a808cc"}, "geometry": {"type": "Point", "coordinates": [116.081543, -8.586388]}}, {"type": "Feature", "properties": {"name": "Pankalan", "id": "5ef0637c5aa1025277a8094e", "_id": "5ef0637c5aa1025277a8094e"}, "geometry": {"type": "Point", "coordinates": [111.752932, -2.849672]}}, {"type": "Feature", "properties": {"name": "Pontianak", "id": "5ef0637c5aa1025277a8096d", "_id": "5ef0637c5aa1025277a8096d"}, "geometry": {"type": "Point", "coordinates": [109.335452, -0.027407]}}, {"type": "Feature", "properties": {"name": "Sangatta", "id": "5ef0637c5aa1025277a809e7", "_id": "5ef0637c5aa1025277a809e7"}, "geometry": {"type": "Point", "coordinates": [117.535497, 0.324521]}}, {"type": "Feature", "properties": {"name": "Toweli", "id": "5ef0637c5aa1025277a80a8d", "_id": "5ef0637c5aa1025277a80a8d"}, "geometry": {"type": "Point", "coordinates": [119.388377, -1.14247]}}, {"type": "Feature", "properties": {"name": "Gianyar", "id": "62011cbe12b8ed7497b06809", "_id": "62011cbe12b8ed7497b06809"}, "geometry": {"coordinates": [115.32677906407594, -8.54597581143257], "type": "Point"}}, {"type": "Feature", "properties": {"name": "Denpasar", "id": "62011d2c12b8ed7497b0680e", "_id": "62011d2c12b8ed7497b0680e"}, "geometry": {"coordinates": [115.20783952349342, -8.652592844050076], "type": "Point"}}]}, "networks": [], "organizations": [], "alert": 0, "RFS": "April 2010"}