{"_id": "6225bf649bb417322e569456", "uuid": "linkedin|w9qvxKf7y5", "name": "Libyan Fiber Optic Network (LFON)", "slug": "libyan-fiber-optic-network-lfon", "notes": "", "systemLength": "1639", "activationDateTime": "1998-12-31T23:00:00.000Z", "urls": [], "terrestrial": false, "capacityTBPS": "0", "litCapacity": [], "fiberPairs": "0", "category": "active", "facilities": [], "owners": [{"_id": "5ebcd7218afb865ea6fb1983", "name": "Libyan Post"}, {"_id": "5ebcd7218afb865ea6fb1992", "name": "Libyan Post, Telecommunications and Information Technology Company (LPTIC Holding)"}], "knownUsers": [], "cls": [{"_id": "5ef0637c5aa1025277a8065d", "name": "Al Bayda,  Libya"}, {"_id": "5ef0637c5aa1025277a80665", "name": "Al Khums,  Libya"}, {"_id": "5ef0637c5aa1025277a806c3", "name": "Benghazi,  Libya"}, {"_id": "5ef0637c5aa1025277a806dc", "name": "Brega,  Libya"}, {"_id": "5ef0637c5aa1025277a80755", "name": "Derna,  Libya"}, {"_id": "5ef0637c5aa1025277a808e3", "name": "Misrata,  Libya"}, {"_id": "5ef0637c5aa1025277a809ad", "name": "Ras Lanuf,  Libya"}, {"_id": "5ef0637c5aa1025277a80a18", "name": "Sirte,  Libya"}, {"_id": "5ef0637c5aa1025277a80a81", "name": "Tolmeta,  Libya"}, {"_id": "5ef0637c5aa1025277a80a8e", "name": "Tripoli,  Libya"}, {"_id": "5ef0637c5aa1025277a80a99", "name": "Tubruq,  Libya"}, {"_id": "5ef0637c5aa1025277a80ae6", "name": "Zawia,  Libya"}, {"_id": "5ef0637c5aa1025277a80aec", "name": "Zuwara,  Libya"}], "tags": "", "rgDate": "2022-03-07T08:16:36.062Z", "uDate": "2022-03-07T08:35:56.178Z", "cluster": {"type": "FeatureCollection", "features": [{"type": "Feature", "properties": {"name": "Al Bayda", "id": "5ef0637c5aa1025277a8065d", "_id": "5ef0637c5aa1025277a8065d"}, "geometry": {"type": "Point", "coordinates": [21.741659, 32.881732]}}, {"type": "Feature", "properties": {"name": "Al Khums", "id": "5ef0637c5aa1025277a80665", "_id": "5ef0637c5aa1025277a80665"}, "geometry": {"type": "Point", "coordinates": [14.264416, 32.649664]}}, {"type": "Feature", "properties": {"name": "Benghazi", "id": "5ef0637c5aa1025277a806c3", "_id": "5ef0637c5aa1025277a806c3"}, "geometry": {"type": "Point", "coordinates": [20.066757, 32.116584]}}, {"type": "Feature", "properties": {"name": "Brega", "id": "5ef0637c5aa1025277a806dc", "_id": "5ef0637c5aa1025277a806dc"}, "geometry": {"type": "Point", "coordinates": [19.576523, 30.378108]}}, {"type": "Feature", "properties": {"name": "Derna", "id": "5ef0637c5aa1025277a80755", "_id": "5ef0637c5aa1025277a80755"}, "geometry": {"type": "Point", "coordinates": [22.639217, 32.763556]}}, {"type": "Feature", "properties": {"name": "Misrata", "id": "5ef0637c5aa1025277a808e3", "_id": "5ef0637c5aa1025277a808e3"}, "geometry": {"type": "Point", "coordinates": [15.094787, 32.374274]}}, {"type": "Feature", "properties": {"name": "Ras Lanuf", "id": "5ef0637c5aa1025277a809ad", "_id": "5ef0637c5aa1025277a809ad"}, "geometry": {"type": "Point", "coordinates": [18.411875, 30.586738]}}, {"type": "Feature", "properties": {"name": "Sirte", "id": "5ef0637c5aa1025277a80a18", "_id": "5ef0637c5aa1025277a80a18"}, "geometry": {"type": "Point", "coordinates": [16.588341, 31.205256]}}, {"type": "Feature", "properties": {"name": "Tolmeta", "id": "5ef0637c5aa1025277a80a81", "_id": "5ef0637c5aa1025277a80a81"}, "geometry": {"type": "Point", "coordinates": [20.94996, 32.71673]}}, {"type": "Feature", "properties": {"name": "Tripoli", "id": "5ef0637c5aa1025277a80a8e", "_id": "5ef0637c5aa1025277a80a8e"}, "geometry": {"type": "Point", "coordinates": [13.187268, 32.877301]}}, {"type": "Feature", "properties": {"name": "Tubruq", "id": "5ef0637c5aa1025277a80a99", "_id": "5ef0637c5aa1025277a80a99"}, "geometry": {"type": "Point", "coordinates": [23.96031, 32.079609]}}, {"type": "Feature", "properties": {"name": "Zawia", "id": "5ef0637c5aa1025277a80ae6", "_id": "5ef0637c5aa1025277a80ae6"}, "geometry": {"type": "Point", "coordinates": [12.529749, 32.774725]}}, {"type": "Feature", "properties": {"name": "Zuwara", "id": "5ef0637c5aa1025277a80aec", "_id": "5ef0637c5aa1025277a80aec"}, "geometry": {"type": "Point", "coordinates": [12.083362, 32.93338]}}]}, "networks": [], "organizations": [], "alert": 0, "RFS": null}