{"_id": "5ebce76080771d653f96da49", "uuid": "linkedin|w9qvxKf7y5", "cableid": "559", "name": "Mataram Kupang Cable System (MKCS)", "notes": "", "systemLength": "1041", "activationDateTime": "2011-03-31T22:00:00.000Z", "urls": ["https://web.archive.org/web/20150924114220/https://www.telkom.co.id/telkom-membangun-backbone-serat-optik-mataram-kupang-cable-system.html", "https://id.wikipedia.org/wiki/Sistem_kabel_Mataram-Kupang", "https://www.hmntechnologies.com/enExperience/37699.jhtml", "https://www.nexans.com/business/Telecom---Data/Subsea-telecom-solutions/Mataram-Kupang-submarine-cable-system.html", "https://web.archive.org/web/20171008193133/https://www.telkom.co.id/telkom-membangun-backbone-serat-optik-mataram-kupang-cable-system.html"], "terrestrial": false, "capacityTBPS": "1.8", "litCapacity": [], "fiberPairs": "6", "category": "active", "facilities": [], "owners": [{"_id": "5ebcd7218afb865ea6fb196c", "name": "Telkom Indonesia"}], "tags": "", "rgDate": "2020-05-14T06:38:24.603Z", "uDate": "2022-05-09T07:46:54.672Z", "cls": [{"_id": "5ef0637c5aa1025277a80672", "name": "Bima,  Indonesia"}, {"_id": "5ef0637c5aa1025277a8077a", "name": "Ende,  Indonesia"}, {"_id": "5ef0637c5aa1025277a80853", "name": "Kupang,  Indonesia"}, {"_id": "61f26a3912b8ed7497b0309a", "name": "Pringgabaya, ID"}, {"_id": "5ef0637c5aa1025277a809f7", "name": "Saraemee,  Indonesia"}, {"_id": "5ef0637c5aa1025277a80a39", "name": "Sumbawa Besar,  Indonesia"}, {"_id": "5ef0637c5aa1025277a80ac6", "name": "Waingapu,  Indonesia"}], "slug": "mataram-kupang-cable-system-mkcs", "knownUsers": [], "cluster": {"type": "FeatureCollection", "features": [{"type": "Feature", "properties": {"name": "Bima", "id": "5ef0637c5aa1025277a80672", "_id": "5ef0637c5aa1025277a80672"}, "geometry": {"coordinates": [118.71530259879175, -8.455844282121378], "type": "Point"}}, {"type": "Feature", "properties": {"name": "Ende", "id": "5ef0637c5aa1025277a8077a", "_id": "5ef0637c5aa1025277a8077a"}, "geometry": {"type": "Point", "coordinates": [121.65156, -8.855308]}}, {"type": "Feature", "properties": {"name": "Kupang", "id": "5ef0637c5aa1025277a80853", "_id": "5ef0637c5aa1025277a80853"}, "geometry": {"type": "Point", "coordinates": [123.583322, -10.183335]}}, {"type": "Feature", "properties": {"name": "Saraemee", "id": "5ef0637c5aa1025277a809f7", "_id": "5ef0637c5aa1025277a809f7"}, "geometry": {"type": "Point", "coordinates": [118.711815, -8.796934]}}, {"type": "Feature", "properties": {"name": "Sumbawa Besar", "id": "5ef0637c5aa1025277a80a39", "_id": "5ef0637c5aa1025277a80a39"}, "geometry": {"type": "Point", "coordinates": [117.400976, -8.496959]}}, {"type": "Feature", "properties": {"name": "Waingapu", "id": "5ef0637c5aa1025277a80ac6", "_id": "5ef0637c5aa1025277a80ac6"}, "geometry": {"type": "Point", "coordinates": [120.253025, -9.646153]}}, {"type": "Feature", "properties": {"name": "Pringgabaya", "id": "61f26a3912b8ed7497b0309a", "_id": "61f26a3912b8ed7497b0309a"}, "geometry": {"coordinates": [116.66086370490137, -8.56168968659162], "type": "Point"}}]}, "networks": [], "organizations": [], "alert": 0, "RFS": "April 2011"}