{"_id": "5ebce77580771d653f97061d", "uuid": "linkedin|w9qvxKf7y5", "cableid": "288", "name": "N0r5ke Viking", "notes": "", "systemLength": "810", "activationDateTime": "2021-06-30T22:00:00.000Z", "urls": ["https://www.n0r5kefibre.com/"], "terrestrial": false, "capacityTBPS": "0", "litCapacity": [], "fiberPairs": "96", "category": "active", "facilities": [], "owners": [{"_id": "614b32aa1efdf7481334f921", "name": "NOR5KE Fibre AS"}], "tags": "", "rgDate": "2020-05-14T06:38:45.540Z", "uDate": "2021-09-22T14:29:43.590Z", "cls": [{"_id": "5ef0637c5aa1025277a80677", "name": "Andalsnes,  Norway"}, {"_id": "5ef0637c5aa1025277a806c7", "name": "Bergen,  Norway"}, {"_id": "5ef0637c5aa1025277a806df", "name": "Brekstad,  Norway"}, {"_id": "5ef0637c5aa1025277a807d2", "name": "Equinor Tjeldbergodden,  Norway"}, {"_id": "5ef0637c5aa1025277a808e6", "name": "Flor\u00f8,  Norway"}, {"_id": "5ef0637c5aa1025277a80a1e", "name": "Herlandsvika,  Norway"}, {"_id": "5ef0637c5aa1025277a807e7", "name": "Hyllestad,  Norway"}, {"_id": "5ef0637c5aa1025277a8084d", "name": "Kristiansund,  Norway"}, {"_id": "5ef0637c5aa1025277a80aa5", "name": "Lefdal,  Norway"}, {"_id": "5ef0637c5aa1025277a808e9", "name": "Molde,  Norway"}, {"_id": "5ef0637c5aa1025277a80a35", "name": "Sture,  Norway"}, {"_id": "5ef0637c5aa1025277a80a94", "name": "Trondheim,  Norway"}, {"_id": "5ef0637c5aa1025277a80ab6", "name": "\u00c5heim,  Norway"}, {"_id": "5ef0637c5aa1025277a8087a", "name": "\u00c5lesund,  Norway"}], "slug": "n0r5ke-viking", "knownUsers": [], "cluster": {"type": "FeatureCollection", "features": [{"type": "Feature", "properties": {"name": "Andalsnes", "id": "5ef0637c5aa1025277a80677", "_id": "5ef0637c5aa1025277a80677"}, "geometry": {"type": "Point", "coordinates": [7.681582, 62.565825]}}, {"type": "Feature", "properties": {"name": "Bergen", "id": "5ef0637c5aa1025277a806c7", "_id": "5ef0637c5aa1025277a806c7"}, "geometry": {"type": "Point", "coordinates": [5.332743, 60.390703]}}, {"type": "Feature", "properties": {"name": "Brekstad", "id": "5ef0637c5aa1025277a806df", "_id": "5ef0637c5aa1025277a806df"}, "geometry": {"type": "Point", "coordinates": [9.663112, 63.688407]}}, {"type": "Feature", "properties": {"name": "Equinor Tjeldbergodden", "id": "5ef0637c5aa1025277a807d2", "_id": "5ef0637c5aa1025277a807d2"}, "geometry": {"coordinates": [8.69472441117297, 63.4086143717919], "type": "Point"}}, {"type": "Feature", "properties": {"name": "Hyllestad", "id": "5ef0637c5aa1025277a807e7", "_id": "5ef0637c5aa1025277a807e7"}, "geometry": {"type": "Point", "coordinates": [5.293388, 61.172246]}}, {"type": "Feature", "properties": {"name": "Kristiansund", "id": "5ef0637c5aa1025277a8084d", "_id": "5ef0637c5aa1025277a8084d"}, "geometry": {"type": "Point", "coordinates": [7.729678, 63.110783]}}, {"type": "Feature", "properties": {"name": "\u00c5lesund", "id": "5ef0637c5aa1025277a8087a", "_id": "5ef0637c5aa1025277a8087a"}, "geometry": {"type": "Point", "coordinates": [6.174381, 62.471489]}}, {"type": "Feature", "properties": {"name": "Flor\u00f8", "id": "5ef0637c5aa1025277a808e6", "_id": "5ef0637c5aa1025277a808e6"}, "geometry": {"coordinates": [5.017114691116779, 61.598377829434554], "type": "Point"}}, {"type": "Feature", "properties": {"name": "Molde", "id": "5ef0637c5aa1025277a808e9", "_id": "5ef0637c5aa1025277a808e9"}, "geometry": {"type": "Point", "coordinates": [7.160733, 62.737236]}}, {"type": "Feature", "properties": {"name": "Herlandsvika", "id": "5ef0637c5aa1025277a80a1e", "_id": "5ef0637c5aa1025277a80a1e"}, "geometry": {"coordinates": [6.464295756416451, 62.61401266751304], "type": "Point"}}, {"type": "Feature", "properties": {"name": "Sture", "id": "5ef0637c5aa1025277a80a35", "_id": "5ef0637c5aa1025277a80a35"}, "geometry": {"type": "Point", "coordinates": [4.855485, 60.621978]}}, {"type": "Feature", "properties": {"name": "Trondheim", "id": "5ef0637c5aa1025277a80a94", "_id": "5ef0637c5aa1025277a80a94"}, "geometry": {"type": "Point", "coordinates": [10.392079, 63.43101]}}, {"type": "Feature", "properties": {"name": "Lefdal", "id": "5ef0637c5aa1025277a80aa5", "_id": "5ef0637c5aa1025277a80aa5"}, "geometry": {"coordinates": [5.503696124476832, 61.93738585547175], "type": "Point"}}, {"type": "Feature", "properties": {"name": "\u00c5heim", "id": "5ef0637c5aa1025277a80ab6", "_id": "5ef0637c5aa1025277a80ab6"}, "geometry": {"coordinates": [5.517429089169312, 62.03969056294619], "type": "Point"}}]}, "networks": [], "organizations": [], "alert": 0, "RFS": "July 2021"}