{"_id": "5ebce77580771d653f97056f", "uuid": "linkedin|w9qvxKf7y5", "cableid": "236", "name": "Pacific Caribbean Cable System (PCCS)", "notes": "", "systemLength": "6000", "activationDateTime": "2015-08-31T22:00:00.000Z", "urls": ["http://www.alcatel-lucent.com/wps/portal/%21ut/p/kcxml/04_Sj9SPykssy0xPLMnMz0vM0Y_QjzKLd4x3tXDUL8h2VAQAURh_Yw%21%21?LMSG_CABINET=Docs_and_Resource_Ctr&LMSG_CONTENT_FILE=News_Releases_2012/News_Article"], "terrestrial": false, "capacityTBPS": "80", "litCapacity": [{"year": "2014-12-31T23:00:00.000Z", "cap": 0.95}, {"year": "2016-12-31T23:00:00.000Z", "cap": 5.47}], "fiberPairs": "8", "category": "active", "facilities": [], "owners": [{"_id": "5ebcd71e8afb865ea6fb050d", "name": "C&W Networks"}, {"_id": "5ebcd7218afb865ea6fb1984", "name": "Setar"}, {"_id": "5ebcd71b8afb865ea6fae221", "name": "Telconet"}, {"_id": "5ebcd7198afb865ea6fad8e6", "name": "Telxius"}, {"_id": "5ebcd71b8afb865ea6fae44e", "name": "United Telecommunication Services (UTS)"}], "tags": "", "rgDate": "2020-05-14T06:38:45.455Z", "uDate": "2022-04-21T08:33:52.094Z", "cls": [{"_id": "5ef0637c5aa1025277a8069d", "name": "Balboa,  Panama"}, {"_id": "5ef0637c5aa1025277a80731", "name": "Cartagena,  Colombia"}, {"_id": "5ef0637c5aa1025277a807e2", "name": "Hudishibana,  Aruba"}, {"_id": "5ef0637c5aa1025277a807f4", "name": "Jacksonville, FL, US"}, {"_id": "5ef0637c5aa1025277a808a4", "name": "Mahuma,  Cura\u00e7ao"}, {"_id": "5ef0637c5aa1025277a808ba", "name": "Manta,  Ecuador"}, {"_id": "5ef0637c5aa1025277a808bb", "name": "Maria Chiquita,  Panama"}, {"_id": "5ef0637c5aa1025277a809dd", "name": "San Juan, PR, US"}, {"_id": "5ef0637c5aa1025277a80a88", "name": "Tortola,  Virgin Islands (U.K.)"}], "knownUsers": [], "slug": "pacific-caribbean-cable-system-pccs", "cluster": {"type": "FeatureCollection", "features": [{"type": "Feature", "properties": {"name": "Balboa", "id": "5ef0637c5aa1025277a8069d", "_id": "5ef0637c5aa1025277a8069d"}, "geometry": {"type": "Point", "coordinates": [-79.566679, 8.95003]}}, {"type": "Feature", "properties": {"name": "Cartagena", "id": "5ef0637c5aa1025277a80731", "_id": "5ef0637c5aa1025277a80731"}, "geometry": {"type": "Point", "coordinates": [-75.490845143795, 10.4067790843455]}}, {"type": "Feature", "properties": {"name": "Hudishibana", "id": "5ef0637c5aa1025277a807e2", "_id": "5ef0637c5aa1025277a807e2"}, "geometry": {"type": "Point", "coordinates": [-70.049997, 12.616678]}}, {"type": "Feature", "properties": {"name": "Jacksonville, FL", "id": "5ef0637c5aa1025277a807f4", "_id": "5ef0637c5aa1025277a807f4"}, "geometry": {"type": "Point", "coordinates": [-81.655741, 30.331758]}}, {"type": "Feature", "properties": {"name": "Mahuma", "id": "5ef0637c5aa1025277a808a4", "_id": "5ef0637c5aa1025277a808a4"}, "geometry": {"type": "Point", "coordinates": [-68.956943, 12.1689]}}, {"type": "Feature", "properties": {"name": "Maria Chiquita", "id": "5ef0637c5aa1025277a808bb", "_id": "5ef0637c5aa1025277a808bb"}, "geometry": {"type": "Point", "coordinates": [-79.753544, 9.437334]}}, {"type": "Feature", "properties": {"name": "Manta", "id": "5ef0637c5aa1025277a808ba", "_id": "5ef0637c5aa1025277a808ba"}, "geometry": {"type": "Point", "coordinates": [-80.71619, -0.950014]}}, {"type": "Feature", "properties": {"name": "San Juan, PR", "id": "5ef0637c5aa1025277a809dd", "_id": "5ef0637c5aa1025277a809dd"}, "geometry": {"type": "Point", "coordinates": [-66.106664, 18.466029]}}, {"type": "Feature", "properties": {"name": "Tortola", "id": "5ef0637c5aa1025277a80a88", "_id": "5ef0637c5aa1025277a80a88"}, "geometry": {"type": "Point", "coordinates": [-64.63359373502936, 18.43663018761082]}}]}, "networks": [], "organizations": [], "alert": 0, "RFS": "September 2015"}