{"_id": "5ebce77580771d653f9705e5", "uuid": "linkedin|w9qvxKf7y5", "cableid": "456", "name": "Palapa Ring East", "notes": "", "systemLength": "6300", "activationDateTime": "2019-09-30T22:00:00.000Z", "urls": [], "terrestrial": false, "capacityTBPS": "0", "litCapacity": [], "fiberPairs": "0", "category": "active", "facilities": [], "owners": [{"_id": "5ebcd7218afb865ea6fb1969", "name": "Indonesian Government"}, {"_id": "5ebcd71e8afb865ea6fb055c", "name": "Moratelindo"}, {"_id": "5ebcd7218afb865ea6fb1966", "name": "Telekom PT SmartFren"}], "tags": "", "rgDate": "2020-05-14T06:38:45.519Z", "uDate": "2022-04-21T08:49:43.103Z", "cls": [{"_id": "5ef0637c5aa1025277a80656", "name": "Agats,  Indonesia"}, {"_id": "5ef0637c5aa1025277a80695", "name": "Baa,  Indonesia"}, {"_id": "5ef0637c5aa1025277a8081d", "name": "Kep. Aru,  Indonesia"}, {"_id": "5ef0637c5aa1025277a80834", "name": "Kokar,  Indonesia"}, {"_id": "5ef0637c5aa1025277a8083f", "name": "Kota Mappi,  Indonesia"}, {"_id": "5ef0637c5aa1025277a80853", "name": "Kupang,  Indonesia"}, {"_id": "5ef0637c5aa1025277a808b6", "name": "Manokwari,  Indonesia"}, {"_id": "5ef0637c5aa1025277a80904", "name": "Nabire,  Indonesia"}, {"_id": "5ef0637c5aa1025277a809ff", "name": "Seba,  Indonesia"}, {"_id": "5ef0637c5aa1025277a80a01", "name": "Serwaru,  Indonesia"}, {"_id": "5ef0637c5aa1025277a80a3a", "name": "Suemlaki,  Indonesia"}, {"_id": "5ef0637c5aa1025277a80a3d", "name": "Supiori,  Indonesia"}, {"_id": "5ef0637c5aa1025277a80a63", "name": "Teluk,  Indonesia"}, {"_id": "5ef0637c5aa1025277a80a6f", "name": "Tiakur,  Indonesia"}, {"_id": "5ef0637c5aa1025277a80a73", "name": "Timika,  Indonesia"}, {"_id": "5ef0637c5aa1025277a80a96", "name": "Tual,  Indonesia"}, {"_id": "5ef0637c5aa1025277a80ac6", "name": "Waingapu,  Indonesia"}, {"_id": "5ef0637c5aa1025277a80ae0", "name": "Yapen,  Indonesia"}], "slug": "palapa-ring-east", "knownUsers": [], "cluster": {"type": "FeatureCollection", "features": [{"type": "Feature", "properties": {"name": "Agats", "id": "5ef0637c5aa1025277a80656", "_id": "5ef0637c5aa1025277a80656"}, "geometry": {"type": "Point", "coordinates": [138.121352, -5.535632]}}, {"type": "Feature", "properties": {"name": "Baa", "id": "5ef0637c5aa1025277a80695", "_id": "5ef0637c5aa1025277a80695"}, "geometry": {"type": "Point", "coordinates": [123.035275, -10.733335]}}, {"type": "Feature", "properties": {"name": "Kep. Aru", "id": "5ef0637c5aa1025277a8081d", "_id": "5ef0637c5aa1025277a8081d"}, "geometry": {"type": "Point", "coordinates": [134.550186, -6.194641]}}, {"type": "Feature", "properties": {"name": "Kokar", "id": "5ef0637c5aa1025277a80834", "_id": "5ef0637c5aa1025277a80834"}, "geometry": {"type": "Point", "coordinates": [124.453463, -8.158312]}}, {"type": "Feature", "properties": {"name": "Kota Mappi", "id": "5ef0637c5aa1025277a8083f", "_id": "5ef0637c5aa1025277a8083f"}, "geometry": {"type": "Point", "coordinates": [139.396498, -7.102453]}}, {"type": "Feature", "properties": {"name": "Kupang", "id": "5ef0637c5aa1025277a80853", "_id": "5ef0637c5aa1025277a80853"}, "geometry": {"type": "Point", "coordinates": [123.583322, -10.183335]}}, {"type": "Feature", "properties": {"name": "Manokwari", "id": "5ef0637c5aa1025277a808b6", "_id": "5ef0637c5aa1025277a808b6"}, "geometry": {"type": "Point", "coordinates": [134.062052, -0.861465]}}, {"type": "Feature", "properties": {"name": "Nabire", "id": "5ef0637c5aa1025277a80904", "_id": "5ef0637c5aa1025277a80904"}, "geometry": {"type": "Point", "coordinates": [135.501626, -3.37223]}}, {"type": "Feature", "properties": {"name": "Seba", "id": "5ef0637c5aa1025277a809ff", "_id": "5ef0637c5aa1025277a809ff"}, "geometry": {"type": "Point", "coordinates": [121.879904, -10.457822]}}, {"type": "Feature", "properties": {"name": "Serwaru", "id": "5ef0637c5aa1025277a80a01", "_id": "5ef0637c5aa1025277a80a01"}, "geometry": {"type": "Point", "coordinates": [127.691498, -8.158116]}}, {"type": "Feature", "properties": {"name": "Suemlaki", "id": "5ef0637c5aa1025277a80a3a", "_id": "5ef0637c5aa1025277a80a3a"}, "geometry": {"type": "Point", "coordinates": [131.213054, -8.052233]}}, {"type": "Feature", "properties": {"name": "Supiori", "id": "5ef0637c5aa1025277a80a3d", "_id": "5ef0637c5aa1025277a80a3d"}, "geometry": {"type": "Point", "coordinates": [135.638516, -0.729507]}}, {"type": "Feature", "properties": {"name": "Teluk", "id": "5ef0637c5aa1025277a80a63", "_id": "5ef0637c5aa1025277a80a63"}, "geometry": {"type": "Point", "coordinates": [133.482145, -2.202382]}}, {"type": "Feature", "properties": {"name": "Tiakur", "id": "5ef0637c5aa1025277a80a6f", "_id": "5ef0637c5aa1025277a80a6f"}, "geometry": {"type": "Point", "coordinates": [125.573726, -8.282921]}}, {"type": "Feature", "properties": {"name": "Timika", "id": "5ef0637c5aa1025277a80a73", "_id": "5ef0637c5aa1025277a80a73"}, "geometry": {"type": "Point", "coordinates": [136.889614, -4.550257]}}, {"type": "Feature", "properties": {"name": "Tual", "id": "5ef0637c5aa1025277a80a96", "_id": "5ef0637c5aa1025277a80a96"}, "geometry": {"type": "Point", "coordinates": [132.752092, -5.626575]}}, {"type": "Feature", "properties": {"name": "Waingapu", "id": "5ef0637c5aa1025277a80ac6", "_id": "5ef0637c5aa1025277a80ac6"}, "geometry": {"type": "Point", "coordinates": [120.253025, -9.646153]}}, {"type": "Feature", "properties": {"name": "Yapen", "id": "5ef0637c5aa1025277a80ae0", "_id": "5ef0637c5aa1025277a80ae0"}, "geometry": {"type": "Point", "coordinates": [136.156973, -1.756117]}}]}, "networks": [], "organizations": [], "alert": 0, "RFS": "October 2019"}