{"_id": "5ebce77580771d653f9705e8", "uuid": "linkedin|w9qvxKf7y5", "cableid": "466", "name": "PEACE Cable", "notes": "", "systemLength": "21500", "activationDateTime": "2022-01-31T23:00:00.000Z", "urls": ["http://www.peacecable.net/", "https://www.orange.com/sites/orangecom/files/2021-10/PEACE_1.png", "https://twitter.com/philBE2/status/1469781958100148231", "http://www.peacecable.net/news/Detail/16636", "https://mobile.twitter.com/philBE2/status/1474792822964424704", "https://maltashipnews.com/2021/12/21/cable-layer-bold-maverick-in-malta-for-submarine-cable-ops-nov-to-dec-2021/", "https://www.submarinenetworks.com/en/systems/asia-europe-africa/arsinoe", "https://www.submarinenetworks.com/en/systems/asia-europe-africa/lavalette", "https://www.submarinenetworks.com/en/systems/asia-europe-africa/peace/peace-cable-extends-to-singapore-and-maldives", "https://web.archive.org/web/20220223120448/https://www.orange.com/fr/newsroom/communiques/2021/orange-pccw-global-et-peace-cable-international-annoncent-conjointement", "https://web.archive.org/web/20220303043629/http://peacecable.net/News/Detail/16638", "https://www.submarinenetworks.com/en/systems/asia-europe-africa/peace", "https://www.globenewswire.com/news-release/2022/03/29/2411485/0/en/PCCW-Global-doubles-capacity-on-PEACE-cable-System-with-Infinera-s-ICE-Technology.html", "https://www.submarinenetworks.com/en/systems/asia-europe-africa/j2m/zain-to-build-j2m-cable-system-linking-jeddah-to-marseille"], "terrestrial": false, "capacityTBPS": "128", "litCapacity": [], "fiberPairs": "8", "category": "active", "facilities": [], "owners": [{"_id": "5efb01e714a3631602cf8b7c", "name": "Peace Cable International Network Co. Ltd."}], "tags": "", "rgDate": "2020-05-14T06:38:45.519Z", "uDate": "2022-06-20T11:21:51.244Z", "cls": [{"_id": "62b03e890bed4803fe6a8d13", "name": "Abu Talat 2, EG"}, {"_id": "5ef0637c5aa1025277a806d7", "name": "Bosaso,  Somalia"}, {"_id": "5ef0637c5aa1025277a80759", "name": "Djibouti City,  Djibouti"}, {"_id": "5ef0637c5aa1025277a807be", "name": "Gwadar,  Pakistan"}, {"_id": "5ef0637c5aa1025277a807dd", "name": "Hobyo,  Somalia"}, {"_id": "5ef0637c5aa1025277a807fa", "name": "Jeddah,  Saudi Arabia"}, {"_id": "5ef0637c5aa1025277a80808", "name": "Karachi,  Pakistan"}, {"_id": "5ef0637c5aa1025277a8082e", "name": "Kismayo,  Somalia"}, {"_id": "5ef0637c5aa1025277a80855", "name": "Kulhudhufushi,  Maldives"}, {"_id": "5ef0637c5aa1025277a808c6", "name": "Marseille,  France"}, {"_id": "61fb820212b8ed7497b052a9", "name": "Mellieha, MT"}, {"_id": "5ef0637c5aa1025277a808ec", "name": "Mogadishu,  Somalia"}, {"_id": "5ef0637c5aa1025277a808ea", "name": "Mombasa,  Kenya"}, {"_id": "5ef0637c5aa1025277a808fb", "name": "Mtunzini,  South Africa"}, {"_id": "5ef0637c5aa1025277a80a9b", "name": "Tuas,  Singapore"}, {"_id": "5ef0637c5aa1025277a80abe", "name": "Victoria,  Seychelles"}, {"_id": "5ef0637c5aa1025277a80ae1", "name": "Yeroskipos,  Cyprus"}, {"_id": "62b057f00bed4803fe6a8e1f", "name": "Zafarana 2, EG"}], "knownUsers": [{"_id": "5ebcd71c8afb865ea6faf191", "name": "GO plc"}, {"_id": "5ebcd71f8afb865ea6fb0aa1", "name": "PCCW Global"}, {"_id": "5ebcd71f8afb865ea6fb0efc", "name": "Telkom Kenya Ltd"}, {"_id": "5ebcd7208afb865ea6fb13e3", "name": "CytaGlobal"}], "slug": "peace-cable", "cluster": {"type": "FeatureCollection", "features": [{"type": "Feature", "properties": {"name": "Bosaso", "id": "5ef0637c5aa1025277a806d7", "_id": "5ef0637c5aa1025277a806d7"}, "geometry": {"type": "Point", "coordinates": [49.187922, 11.275566]}}, {"type": "Feature", "properties": {"name": "Djibouti City", "id": "5ef0637c5aa1025277a80759", "_id": "5ef0637c5aa1025277a80759"}, "geometry": {"type": "Point", "coordinates": [43.148033, 11.594853]}}, {"type": "Feature", "properties": {"name": "Gwadar", "id": "5ef0637c5aa1025277a807be", "_id": "5ef0637c5aa1025277a807be"}, "geometry": {"type": "Point", "coordinates": [62.324977, 25.132261]}}, {"type": "Feature", "properties": {"name": "Hobyo", "id": "5ef0637c5aa1025277a807dd", "_id": "5ef0637c5aa1025277a807dd"}, "geometry": {"type": "Point", "coordinates": [48.522029, 5.350154]}}, {"type": "Feature", "properties": {"name": "Jeddah", "id": "5ef0637c5aa1025277a807fa", "_id": "5ef0637c5aa1025277a807fa"}, "geometry": {"type": "Point", "coordinates": [39.182751, 21.481262]}}, {"type": "Feature", "properties": {"name": "Karachi", "id": "5ef0637c5aa1025277a80808", "_id": "5ef0637c5aa1025277a80808"}, "geometry": {"type": "Point", "coordinates": [67.028539, 24.889683]}}, {"type": "Feature", "properties": {"name": "Kismayo", "id": "5ef0637c5aa1025277a8082e", "_id": "5ef0637c5aa1025277a8082e"}, "geometry": {"type": "Point", "coordinates": [42.545152, -0.36271]}}, {"type": "Feature", "properties": {"name": "Kulhudhufushi", "id": "5ef0637c5aa1025277a80855", "_id": "5ef0637c5aa1025277a80855"}, "geometry": {"type": "Point", "coordinates": [73.071407, 6.622443]}}, {"type": "Feature", "properties": {"name": "Marseille", "id": "5ef0637c5aa1025277a808c6", "_id": "5ef0637c5aa1025277a808c6"}, "geometry": {"type": "Point", "coordinates": [5.372489, 43.29358]}}, {"type": "Feature", "properties": {"name": "Mombasa", "id": "5ef0637c5aa1025277a808ea", "_id": "5ef0637c5aa1025277a808ea"}, "geometry": {"type": "Point", "coordinates": [39.672839, -4.053016]}}, {"type": "Feature", "properties": {"name": "Mogadishu", "id": "5ef0637c5aa1025277a808ec", "_id": "5ef0637c5aa1025277a808ec"}, "geometry": {"type": "Point", "coordinates": [45.344174, 2.041195]}}, {"type": "Feature", "properties": {"name": "Mtunzini", "id": "5ef0637c5aa1025277a808fb", "_id": "5ef0637c5aa1025277a808fb"}, "geometry": {"type": "Point", "coordinates": [31.757853, -28.950636]}}, {"type": "Feature", "properties": {"name": "Tuas", "id": "5ef0637c5aa1025277a80a9b", "_id": "5ef0637c5aa1025277a80a9b"}, "geometry": {"coordinates": [103.65594405391082, 1.3214405182174533], "type": "Point"}}, {"type": "Feature", "properties": {"name": "Victoria", "id": "5ef0637c5aa1025277a80abe", "_id": "5ef0637c5aa1025277a80abe"}, "geometry": {"type": "Point", "coordinates": [55.445048, -4.617615]}}, {"type": "Feature", "properties": {"name": "Yeroskipos", "id": "5ef0637c5aa1025277a80ae1", "_id": "5ef0637c5aa1025277a80ae1"}, "geometry": {"type": "Point", "coordinates": [32.466544, 34.766411]}}, {"type": "Feature", "properties": {"name": "Mellieha", "id": "61fb820212b8ed7497b052a9", "_id": "61fb820212b8ed7497b052a9"}, "geometry": {"coordinates": [14.35688719857174, 35.95870702617238], "type": "Point"}}, {"type": "Feature", "properties": {"name": "Abu Talat 2", "id": "62b03e890bed4803fe6a8d13", "_id": "62b03e890bed4803fe6a8d13"}, "geometry": {"coordinates": [29.701906941193727, 31.078180033325623], "type": "Point"}}, {"type": "Feature", "properties": {"name": "Zafarana 2", "id": "62b057f00bed4803fe6a8e1f", "_id": "62b057f00bed4803fe6a8e1f"}, "geometry": {"coordinates": [32.649527199673884, 29.07963726747279], "type": "Point"}}]}, "networks": [], "organizations": [], "alert": 0, "RFS": "February 2022"}