{"_id": "5ebce77580771d653f97065e", "uuid": "linkedin|w9qvxKf7y5", "cableid": "545", "name": "Saba, Statia Cable System (SSCS)", "notes": "", "systemLength": "198", "activationDateTime": "2012-12-31T23:00:00.000Z", "urls": ["http://www.sscsbv.com/"], "terrestrial": false, "capacityTBPS": "0", "litCapacity": [], "fiberPairs": "0", "category": "active", "facilities": [], "owners": [{"_id": "5ebcd71b8afb865ea6fae6cb", "name": "SSCS B.V."}], "tags": "", "rgDate": "2020-05-14T06:38:45.566Z", "uDate": "2020-11-25T21:29:25.992Z", "cls": [{"_id": "5ef0637c5aa1025277a806b6", "name": "Basseterre,  Saint Kitts and Nevis"}, {"_id": "5ef0637c5aa1025277a807a0", "name": "Gallows Bay,  Bonaire, Sint Eustatius and Saba"}, {"_id": "5ef0637c5aa1025277a807b3", "name": "Great Bay Beach,  Sint Maarten"}, {"_id": "5ef0637c5aa1025277a807b5", "name": "Great Level Bay,  Bonaire, Sint Eustatius and Saba"}, {"_id": "5ef0637c5aa1025277a807bd", "name": "Gustavia,  Saint Barth\u00e9lemy"}], "slug": "saba-statia-cable-system-sscs", "knownUsers": [], "cluster": {"type": "FeatureCollection", "features": [{"type": "Feature", "properties": {"name": "Basseterre", "id": "5ef0637c5aa1025277a806b6", "_id": "5ef0637c5aa1025277a806b6"}, "geometry": {"type": "Point", "coordinates": [-62.731226, 17.298451]}}, {"type": "Feature", "properties": {"name": "Gallows Bay", "id": "5ef0637c5aa1025277a807a0", "_id": "5ef0637c5aa1025277a807a0"}, "geometry": {"type": "Point", "coordinates": [-62.985523, 17.475917]}}, {"type": "Feature", "properties": {"name": "Great Bay Beach", "id": "5ef0637c5aa1025277a807b3", "_id": "5ef0637c5aa1025277a807b3"}, "geometry": {"type": "Point", "coordinates": [-63.055054, 18.024476]}}, {"type": "Feature", "properties": {"name": "Great Level Bay", "id": "5ef0637c5aa1025277a807b5", "_id": "5ef0637c5aa1025277a807b5"}, "geometry": {"type": "Point", "coordinates": [-63.244214, 17.615126]}}, {"type": "Feature", "properties": {"name": "Gustavia", "id": "5ef0637c5aa1025277a807bd", "_id": "5ef0637c5aa1025277a807bd"}, "geometry": {"type": "Point", "coordinates": [-62.850562, 17.897914]}}]}, "networks": [], "organizations": [], "alert": 0, "RFS": null}