{"_id": "621c7f1a9bb417322e5671a2", "uuid": "linkedin|w9qvxKf7y5", "name": "SJJK", "slug": "sjjk", "notes": "", "systemLength": "543", "activationDateTime": "2008-11-30T23:00:00.000Z", "urls": ["https://www.xl.co.id/"], "terrestrial": false, "capacityTBPS": "0", "litCapacity": [], "fiberPairs": "0", "category": "active", "facilities": [], "owners": [{"_id": "5ebcd7198afb865ea6fadaff", "name": "PT. XL AXIATA, Tbk"}], "knownUsers": [], "cls": [{"_id": "5ef0637c5aa1025277a8067d", "name": "Anyer,  Indonesia"}, {"_id": "5ef0637c5aa1025277a806be", "name": "Bawean,  Indonesia"}, {"_id": "5ef0637c5aa1025277a80803", "name": "Kalianda,  Indonesia"}, {"_id": "5ef0637c5aa1025277a80a4c", "name": "Takesung,  Indonesia"}, {"_id": "5ef0637c5aa1025277a80aa8", "name": "Ujung Pankah,  Indonesia"}], "tags": "", "rgDate": "2022-02-28T07:51:54.249Z", "uDate": "2022-02-28T07:55:14.892Z", "cluster": {"type": "FeatureCollection", "features": [{"type": "Feature", "properties": {"name": "Anyer", "id": "5ef0637c5aa1025277a8067d", "_id": "5ef0637c5aa1025277a8067d"}, "geometry": {"type": "Point", "coordinates": [105.883916, -6.073694]}}, {"type": "Feature", "properties": {"name": "Bawean", "id": "5ef0637c5aa1025277a806be", "_id": "5ef0637c5aa1025277a806be"}, "geometry": {"type": "Point", "coordinates": [112.585622, -5.793493]}}, {"type": "Feature", "properties": {"name": "Kalianda", "id": "5ef0637c5aa1025277a80803", "_id": "5ef0637c5aa1025277a80803"}, "geometry": {"type": "Point", "coordinates": [105.584917, -5.76925]}}, {"type": "Feature", "properties": {"name": "Takesung", "id": "5ef0637c5aa1025277a80a4c", "_id": "5ef0637c5aa1025277a80a4c"}, "geometry": {"type": "Point", "coordinates": [114.666822, -3.882825]}}, {"type": "Feature", "properties": {"name": "Ujung Pankah", "id": "5ef0637c5aa1025277a80aa8", "_id": "5ef0637c5aa1025277a80aa8"}, "geometry": {"type": "Point", "coordinates": [112.598244, -6.953332]}}]}, "networks": [], "organizations": [], "alert": 0, "RFS": "December 2008"}