{"_id": "621c8a2c9bb417322e56726c", "uuid": "linkedin|w9qvxKf7y5", "name": "SMPCS Packet-1", "slug": "smpcs-packet-1", "notes": "", "systemLength": "3156", "activationDateTime": "2004-12-31T23:00:00.000Z", "urls": ["https://dl.kaskus.id/rifkisyabani.files.wordpress.com/2015/05/smpcs.jpg"], "terrestrial": false, "capacityTBPS": "0", "litCapacity": [], "fiberPairs": "0", "category": "active", "facilities": [], "owners": [{"_id": "5ebcd7218afb865ea6fb196c", "name": "Telkom Indonesia"}], "knownUsers": [], "cls": [{"_id": "5ef0637c5aa1025277a80673", "name": "Ambon,  Indonesia"}, {"_id": "5ef0637c5aa1025277a806a9", "name": "Bandaneria,  Indonesia"}, {"_id": "5ef0637c5aa1025277a80784", "name": "Fakfak,  Indonesia"}, {"_id": "5ef0637c5aa1025277a80817", "name": "Kendari,  Indonesia"}, {"_id": "5ef0637c5aa1025277a8085e", "name": "Labuha,  Indonesia"}, {"_id": "5ef0637c5aa1025277a808ab", "name": "Manado,  Indonesia"}, {"_id": "5ef0637c5aa1025277a808c5", "name": "Masohi,  Indonesia"}, {"_id": "5ef0637c5aa1025277a80907", "name": "Namlea,  Indonesia"}, {"_id": "5ef0637c5aa1025277a809e0", "name": "Sanana,  Indonesia"}, {"_id": "5ef0637c5aa1025277a80a21", "name": "Sofifi,  Indonesia"}, {"_id": "5ef0637c5aa1025277a80a26", "name": "Sorong,  Indonesia"}, {"_id": "5ef0637c5aa1025277a80a6b", "name": "Ternate,  Indonesia"}], "tags": "", "rgDate": "2022-02-28T08:39:08.912Z", "uDate": "2022-02-28T08:49:06.404Z", "cluster": {"type": "FeatureCollection", "features": [{"type": "Feature", "properties": {"name": "Ambon", "id": "5ef0637c5aa1025277a80673", "_id": "5ef0637c5aa1025277a80673"}, "geometry": {"type": "Point", "coordinates": [128.190717, -3.655384]}}, {"type": "Feature", "properties": {"name": "Bandaneria", "id": "5ef0637c5aa1025277a806a9", "_id": "5ef0637c5aa1025277a806a9"}, "geometry": {"type": "Point", "coordinates": [129.872064, -4.520179]}}, {"type": "Feature", "properties": {"name": "Fakfak", "id": "5ef0637c5aa1025277a80784", "_id": "5ef0637c5aa1025277a80784"}, "geometry": {"type": "Point", "coordinates": [133.019425, -3.097767]}}, {"type": "Feature", "properties": {"name": "Kendari", "id": "5ef0637c5aa1025277a80817", "_id": "5ef0637c5aa1025277a80817"}, "geometry": {"type": "Point", "coordinates": [122.512985, -3.99845]}}, {"type": "Feature", "properties": {"name": "Labuha", "id": "5ef0637c5aa1025277a8085e", "_id": "5ef0637c5aa1025277a8085e"}, "geometry": {"type": "Point", "coordinates": [127.480463, -0.626797]}}, {"type": "Feature", "properties": {"name": "Manado", "id": "5ef0637c5aa1025277a808ab", "_id": "5ef0637c5aa1025277a808ab"}, "geometry": {"type": "Point", "coordinates": [124.83962, 1.490829]}}, {"type": "Feature", "properties": {"name": "Masohi", "id": "5ef0637c5aa1025277a808c5", "_id": "5ef0637c5aa1025277a808c5"}, "geometry": {"type": "Point", "coordinates": [128.955267, -3.29784]}}, {"type": "Feature", "properties": {"name": "Namlea", "id": "5ef0637c5aa1025277a80907", "_id": "5ef0637c5aa1025277a80907"}, "geometry": {"type": "Point", "coordinates": [127.085834, -3.233412]}}, {"type": "Feature", "properties": {"name": "Sanana", "id": "5ef0637c5aa1025277a809e0", "_id": "5ef0637c5aa1025277a809e0"}, "geometry": {"type": "Point", "coordinates": [125.937007, -2.201479]}}, {"type": "Feature", "properties": {"name": "Sofifi", "id": "5ef0637c5aa1025277a80a21", "_id": "5ef0637c5aa1025277a80a21"}, "geometry": {"type": "Point", "coordinates": [127.561445, 0.73497]}}, {"type": "Feature", "properties": {"name": "Sorong", "id": "5ef0637c5aa1025277a80a26", "_id": "5ef0637c5aa1025277a80a26"}, "geometry": {"type": "Point", "coordinates": [131.295403, -0.88207]}}, {"type": "Feature", "properties": {"name": "Ternate", "id": "5ef0637c5aa1025277a80a6b", "_id": "5ef0637c5aa1025277a80a6b"}, "geometry": {"type": "Point", "coordinates": [127.375385, 0.789853]}}]}, "networks": [], "organizations": [], "alert": 0, "RFS": null}