{"_id": "621c86fa9bb417322e56722e", "uuid": "linkedin|w9qvxKf7y5", "name": "SMPCS Packet-2", "slug": "smpcs-packet-2", "notes": "", "systemLength": "3498", "activationDateTime": "2014-12-31T23:00:00.000Z", "urls": [], "terrestrial": false, "capacityTBPS": "0", "litCapacity": [], "fiberPairs": "0", "category": "active", "facilities": [], "owners": [{"_id": "5ebcd7218afb865ea6fb196c", "name": "Telkom Indonesia"}], "knownUsers": [], "cls": [{"_id": "5ef0637c5aa1025277a806c9", "name": "Biak,  Indonesia"}, {"_id": "5ef0637c5aa1025277a80784", "name": "Fakfak,  Indonesia"}, {"_id": "5ef0637c5aa1025277a807fd", "name": "Jayapura,  Indonesia"}, {"_id": "5ef0637c5aa1025277a80805", "name": "Kaimana,  Indonesia"}, {"_id": "5ef0637c5aa1025277a808b6", "name": "Manokwari,  Indonesia"}, {"_id": "5ef0637c5aa1025277a808d7", "name": "Merauke,  Indonesia"}, {"_id": "5ef0637c5aa1025277a809f3", "name": "Sarmi,  Indonesia"}, {"_id": "5ef0637c5aa1025277a80a26", "name": "Sorong,  Indonesia"}, {"_id": "5ef0637c5aa1025277a80a73", "name": "Timika,  Indonesia"}, {"_id": "5ef0637c5aa1025277a80a96", "name": "Tual,  Indonesia"}, {"_id": "5ef0637c5aa1025277a80ac9", "name": "Waisai,  Indonesia"}], "tags": "", "rgDate": "2022-02-28T08:25:30.106Z", "uDate": "2022-02-28T08:36:59.121Z", "cluster": {"type": "FeatureCollection", "features": [{"type": "Feature", "properties": {"name": "Biak", "id": "5ef0637c5aa1025277a806c9", "_id": "5ef0637c5aa1025277a806c9"}, "geometry": {"type": "Point", "coordinates": [136.053286, -1.163466]}}, {"type": "Feature", "properties": {"name": "Fakfak", "id": "5ef0637c5aa1025277a80784", "_id": "5ef0637c5aa1025277a80784"}, "geometry": {"type": "Point", "coordinates": [133.019425, -3.097767]}}, {"type": "Feature", "properties": {"name": "Jayapura", "id": "5ef0637c5aa1025277a807fd", "_id": "5ef0637c5aa1025277a807fd"}, "geometry": {"type": "Point", "coordinates": [140.669104, -2.591566]}}, {"type": "Feature", "properties": {"name": "Kaimana", "id": "5ef0637c5aa1025277a80805", "_id": "5ef0637c5aa1025277a80805"}, "geometry": {"type": "Point", "coordinates": [133.791495, -3.679359]}}, {"type": "Feature", "properties": {"name": "Manokwari", "id": "5ef0637c5aa1025277a808b6", "_id": "5ef0637c5aa1025277a808b6"}, "geometry": {"type": "Point", "coordinates": [134.062052, -0.861465]}}, {"type": "Feature", "properties": {"name": "Merauke", "id": "5ef0637c5aa1025277a808d7", "_id": "5ef0637c5aa1025277a808d7"}, "geometry": {"type": "Point", "coordinates": [140.405042, -8.499083]}}, {"type": "Feature", "properties": {"name": "Sarmi", "id": "5ef0637c5aa1025277a809f3", "_id": "5ef0637c5aa1025277a809f3"}, "geometry": {"type": "Point", "coordinates": [139.353285, -2.175233]}}, {"type": "Feature", "properties": {"name": "Sorong", "id": "5ef0637c5aa1025277a80a26", "_id": "5ef0637c5aa1025277a80a26"}, "geometry": {"type": "Point", "coordinates": [131.295403, -0.88207]}}, {"type": "Feature", "properties": {"name": "Timika", "id": "5ef0637c5aa1025277a80a73", "_id": "5ef0637c5aa1025277a80a73"}, "geometry": {"type": "Point", "coordinates": [136.889614, -4.550257]}}, {"type": "Feature", "properties": {"name": "Tual", "id": "5ef0637c5aa1025277a80a96", "_id": "5ef0637c5aa1025277a80a96"}, "geometry": {"type": "Point", "coordinates": [132.752092, -5.626575]}}, {"type": "Feature", "properties": {"name": "Waisai", "id": "5ef0637c5aa1025277a80ac9", "_id": "5ef0637c5aa1025277a80ac9"}, "geometry": {"type": "Point", "coordinates": [130.85761, -0.383364]}}]}, "networks": [], "organizations": [], "alert": 0, "RFS": null}