{"_id": "5ebce77580771d653f970697", "uuid": "linkedin|w9qvxKf7y5", "cableid": "63", "name": "Southern Cross Cable Network (SCCN)", "notes": "", "systemLength": "30500", "activationDateTime": "2000-10-31T23:00:00.000Z", "urls": ["http://www.southerncrosscables.com/public/Backhaul/default.cfm", "http://en.wikipedia.org/wiki/Southern_Cross_Cable", "https://www.submarinenetworks.com/en/systems/trans-pacific/southern-cross/southern-cross-cable-system-overview"], "terrestrial": false, "capacityTBPS": "12", "litCapacity": [{"year": "1999-12-31T23:00:00.000Z", "cap": 0.02}, {"year": "2002-12-31T23:00:00.000Z", "cap": 0.24}, {"year": "2007-12-31T23:00:00.000Z", "cap": 0.72}, {"year": "2008-12-31T23:00:00.000Z", "cap": 0.86}, {"year": "2011-12-31T23:00:00.000Z", "cap": 2}, {"year": "2012-12-31T23:00:00.000Z", "cap": 2.7}, {"year": "2013-12-31T23:00:00.000Z", "cap": 3.6}, {"year": "2015-12-31T23:00:00.000Z", "cap": 5.4}], "fiberPairs": "0", "category": "active", "facilities": [], "owners": [{"_id": "5ebcd71e8afb865ea6fb0664", "name": "Singtel Optus"}, {"_id": "5ebcd71d8afb865ea6fafad5", "name": "Spark (f.k.a. Telecom New Zealand)"}, {"_id": "5ebcd7218afb865ea6fb1957", "name": "Telstra"}, {"_id": "5ebcd7218afb865ea6fb195d", "name": "Verizon"}], "tags": "", "rgDate": "2020-05-14T06:38:45.583Z", "uDate": "2022-04-21T13:02:21.835Z", "cls": [{"_id": "5ef0637c5aa1025277a8066a", "name": "Alexandria, NSW,  Australia"}, {"_id": "5ef0637c5aa1025277a806e9", "name": "Brookvale, NSW,  Australia"}, {"_id": "5f10702b838eb337c7142097", "name": "Hillsboro (SCCN), OR, US"}, {"_id": "5ef0637c5aa1025277a80800", "name": "Kahe Point, HI, US"}, {"_id": "5ef0637c5aa1025277a808f3", "name": "Morro Bay, CA, US"}, {"_id": "5ef0637c5aa1025277a80a27", "name": "Spencer Beach, HI, US"}, {"_id": "5ef0637c5aa1025277a80a41", "name": "Suva,  Fiji"}, {"_id": "5ef0637c5aa1025277a80a4e", "name": "Takapuna,  New Zealand"}, {"_id": "5ef0637c5aa1025277a80ad5", "name": "Whenuapai,  New Zealand"}], "slug": "southern-cross-cable-network-sccn", "knownUsers": [], "cluster": {"type": "FeatureCollection", "features": [{"type": "Feature", "properties": {"name": "Alexandria, NSW", "id": "5ef0637c5aa1025277a8066a", "_id": "5ef0637c5aa1025277a8066a"}, "geometry": {"type": "Point", "coordinates": [151.196199, -33.913671]}}, {"type": "Feature", "properties": {"name": "Brookvale, NSW", "id": "5ef0637c5aa1025277a806e9", "_id": "5ef0637c5aa1025277a806e9"}, "geometry": {"coordinates": [151.27378346561284, -33.76369525109045], "type": "Point"}}, {"type": "Feature", "properties": {"name": "Kahe Point, HI", "id": "5ef0637c5aa1025277a80800", "_id": "5ef0637c5aa1025277a80800"}, "geometry": {"type": "Point", "coordinates": [-158.130582, 21.353979]}}, {"type": "Feature", "properties": {"name": "Morro Bay, CA", "id": "5ef0637c5aa1025277a808f3", "_id": "5ef0637c5aa1025277a808f3"}, "geometry": {"type": "Point", "coordinates": [-120.847202, 35.36668]}}, {"type": "Feature", "properties": {"name": "Spencer Beach, HI", "id": "5ef0637c5aa1025277a80a27", "_id": "5ef0637c5aa1025277a80a27"}, "geometry": {"coordinates": [-155.8129860910771, 20.00475066119032], "type": "Point"}}, {"type": "Feature", "properties": {"name": "Suva", "id": "5ef0637c5aa1025277a80a41", "_id": "5ef0637c5aa1025277a80a41"}, "geometry": {"type": "Point", "coordinates": [178.437446, -18.123639]}}, {"type": "Feature", "properties": {"name": "Takapuna", "id": "5ef0637c5aa1025277a80a4e", "_id": "5ef0637c5aa1025277a80a4e"}, "geometry": {"type": "Point", "coordinates": [174.767916, -36.787961]}}, {"type": "Feature", "properties": {"name": "Whenuapai", "id": "5ef0637c5aa1025277a80ad5", "_id": "5ef0637c5aa1025277a80ad5"}, "geometry": {"type": "Point", "coordinates": [174.623385, -36.788816]}}, {"type": "Feature", "properties": {"name": "Hillsboro (SCCN), OR", "id": "5f10702b838eb337c7142097", "_id": "5f10702b838eb337c7142097"}, "geometry": {"coordinates": [-122.88075876927684, 45.544043782409744], "type": "Point"}}]}, "networks": [], "organizations": [], "alert": 0, "RFS": "November 2000"}