{"_id": "5ebce75f80771d653f96d9f1", "uuid": "linkedin|w9qvxKf7y5", "cableid": "119", "name": "Southern Caribbean Fiber (SCF)", "notes": "", "systemLength": "3000", "activationDateTime": "2006-08-31T22:00:00.000Z", "urls": ["http://southern-caribbean.com/", "https://slideplayer.com/slide/8348760/", "https://slideplayer.com/slide/8684766/", "https://en.wikipedia.org/wiki/Southern_Caribbean_Fiber", "https://newswire.telecomramblings.com/2013/12/digicel-acquires-submarine-fibre-assets-across-caribbean-region/", "https://web.archive.org/web/20160316155355/http://www.antillescrossing.com/", "https://web.archive.org/web/20151112220315/https://en.wikipedia.org/wiki/Antilles_Crossing"], "terrestrial": false, "capacityTBPS": "0", "litCapacity": [], "fiberPairs": "0", "category": "active", "facilities": [], "owners": [{"_id": "5ebcd71c8afb865ea6faf333", "name": "Digicel"}], "tags": "", "rgDate": "2020-05-14T06:38:23.669Z", "uDate": "2024-05-18T19:26:26.476Z", "cls": [{"_id": "5ef0637c5aa1025277a806a0", "name": "Baillif,  Guadeloupe"}, {"_id": "5ef0637c5aa1025277a806b6", "name": "Basseterre,  Saint Kitts and Nevis"}, {"_id": "5fbfc0bc8b24642a0b43deb0", "name": "Bunkum Bay, MS"}, {"_id": "5ef0637c5aa1025277a806fb", "name": "Canefield,  Dominica"}, {"_id": "5ef0637c5aa1025277a80712", "name": "Chaguaramas,  Trinidad and Tobago"}, {"_id": "5fbfc7948b24642a0b43df0e", "name": "Dickenson Bay, AG"}, {"_id": "5ef0637c5aa1025277a8082c", "name": "Kingstown,  Saint Vincent and the Grenadines"}, {"_id": "5ef0637c5aa1025277a80878", "name": "Le Lamentin,  Martinique"}, {"_id": "5ef0637c5aa1025277a80911", "name": "Needham\u2019s Point,  Barbados"}, {"_id": "5ef0637c5aa1025277a8097b", "name": "Point Salines,  Grenada"}, {"_id": "5ef0637c5aa1025277a809ba", "name": "Rodney Bay,  Saint Lucia"}, {"_id": "5ef0637c5aa1025277a80a2f", "name": "St. Croix, VI"}], "slug": "southern-caribbean-fiber-scf", "knownUsers": [], "cluster": {"type": "FeatureCollection", "features": [{"type": "Feature", "properties": {"name": "Baillif", "id": "5ef0637c5aa1025277a806a0", "_id": "5ef0637c5aa1025277a806a0"}, "geometry": {"type": "Point", "coordinates": [-61.713941, 16.028945]}}, {"type": "Feature", "properties": {"name": "Basseterre", "id": "5ef0637c5aa1025277a806b6", "_id": "5ef0637c5aa1025277a806b6"}, "geometry": {"type": "Point", "coordinates": [-62.731226, 17.298451]}}, {"type": "Feature", "properties": {"name": "Canefield", "id": "5ef0637c5aa1025277a806fb", "_id": "5ef0637c5aa1025277a806fb"}, "geometry": {"type": "Point", "coordinates": [-61.38484, 15.303335]}}, {"type": "Feature", "properties": {"name": "Chaguaramas", "id": "5ef0637c5aa1025277a80712", "_id": "5ef0637c5aa1025277a80712"}, "geometry": {"type": "Point", "coordinates": [-61.650806, 10.686162]}}, {"type": "Feature", "properties": {"name": "Kingstown", "id": "5ef0637c5aa1025277a8082c", "_id": "5ef0637c5aa1025277a8082c"}, "geometry": {"type": "Point", "coordinates": [-61.208253, 13.145438]}}, {"type": "Feature", "properties": {"name": "Le Lamentin", "id": "5ef0637c5aa1025277a80878", "_id": "5ef0637c5aa1025277a80878"}, "geometry": {"type": "Point", "coordinates": [-61.094264, 14.615542]}}, {"type": "Feature", "properties": {"name": "Needham\u2019s Point", "id": "5ef0637c5aa1025277a80911", "_id": "5ef0637c5aa1025277a80911"}, "geometry": {"type": "Point", "coordinates": [-59.612722, 13.078788]}}, {"type": "Feature", "properties": {"name": "Point Salines", "id": "5ef0637c5aa1025277a8097b", "_id": "5ef0637c5aa1025277a8097b"}, "geometry": {"type": "Point", "coordinates": [-61.790577, 12.008817]}}, {"type": "Feature", "properties": {"name": "Rodney Bay", "id": "5ef0637c5aa1025277a809ba", "_id": "5ef0637c5aa1025277a809ba"}, "geometry": {"coordinates": [-60.978385778351026, 14.03081417463788], "type": "Point"}}, {"type": "Feature", "properties": {"name": "St. Croix", "id": "5ef0637c5aa1025277a80a2f", "_id": "5ef0637c5aa1025277a80a2f"}, "geometry": {"type": "Point", "coordinates": [-64.75009525435074, 17.750102651301283]}}, {"type": "Feature", "properties": {"name": "Bunkum Bay", "id": "5fbfc0bc8b24642a0b43deb0", "_id": "5fbfc0bc8b24642a0b43deb0"}, "geometry": {"coordinates": [-62.21724900760772, 16.780418573537943], "type": "Point"}}, {"type": "Feature", "properties": {"name": "Dickenson Bay", "id": "5fbfc7948b24642a0b43df0e", "_id": "5fbfc7948b24642a0b43df0e"}, "geometry": {"coordinates": [-61.84741141308342, 17.15903669653852], "type": "Point"}}]}, "networks": [], "organizations": [], "alert": 0, "RFS": "September 2006"}