{"_id": "5ebce77580771d653f970562", "uuid": "linkedin|w9qvxKf7y5", "cableid": "215", "name": "Tata TGN-Gulf", "notes": "", "systemLength": "4031", "activationDateTime": "2012-01-31T23:00:00.000Z", "urls": ["https://www.submarinenetworks.com/en/systems/intra-asia/tgn-gulf", "https://www.tatacommunications.com/press-release/tata-communications-launches-tgn-gulf-cable-system-connecting-india-oman-uae-qatar-bahrain-saudi-arabia-onward/"], "terrestrial": false, "capacityTBPS": "0", "litCapacity": [], "fiberPairs": "0", "category": "active", "facilities": [], "owners": [{"_id": "5ebcd7218afb865ea6fb1c30", "name": "Tata Communications"}], "tags": "", "rgDate": "2020-05-14T06:38:45.450Z", "uDate": "2022-04-21T08:29:48.340Z", "cls": [{"_id": "5ef0637c5aa1025277a80669", "name": "Al Khobar,  Saudi Arabia"}, {"_id": "5ef0637c5aa1025277a80663", "name": "Al-Kheesa,  Qatar"}, {"_id": "5ef0637c5aa1025277a80678", "name": "Amwaj Island,  Bahrain"}, {"_id": "5ef0637c5aa1025277a80761", "name": "Dubai,  United Arab Emirates"}, {"_id": "5ef0637c5aa1025277a80792", "name": "Fujairah,  United Arab Emirates"}, {"_id": "5ef0637c5aa1025277a809a1", "name": "Qalhat,  Oman"}], "slug": "tata-tgn-gulf", "knownUsers": [{"_id": "5ebcd71a8afb865ea6fadd63", "name": "BSO Network Solutions"}], "cluster": {"type": "FeatureCollection", "features": [{"type": "Feature", "properties": {"name": "Al-Kheesa", "id": "5ef0637c5aa1025277a80663", "_id": "5ef0637c5aa1025277a80663"}, "geometry": {"coordinates": [51.46438974024137, 25.394925373208917], "type": "Point"}}, {"type": "Feature", "properties": {"name": "Al Khobar", "id": "5ef0637c5aa1025277a80669", "_id": "5ef0637c5aa1025277a80669"}, "geometry": {"type": "Point", "coordinates": [50.214191, 26.286167]}}, {"type": "Feature", "properties": {"name": "Amwaj Island", "id": "5ef0637c5aa1025277a80678", "_id": "5ef0637c5aa1025277a80678"}, "geometry": {"type": "Point", "coordinates": [50.575812, 26.228977]}}, {"type": "Feature", "properties": {"name": "Dubai", "id": "5ef0637c5aa1025277a80761", "_id": "5ef0637c5aa1025277a80761"}, "geometry": {"type": "Point", "coordinates": [55.308427, 25.269346]}}, {"type": "Feature", "properties": {"name": "Fujairah", "id": "5ef0637c5aa1025277a80792", "_id": "5ef0637c5aa1025277a80792"}, "geometry": {"type": "Point", "coordinates": [56.33372, 25.12169]}}, {"type": "Feature", "properties": {"name": "Qalhat", "id": "5ef0637c5aa1025277a809a1", "_id": "5ef0637c5aa1025277a809a1"}, "geometry": {"type": "Point", "coordinates": [58.591043, 23.615098]}}]}, "networks": [], "organizations": [], "alert": 0, "RFS": "February 2012"}