{"_id": "5ebce77580771d653f97064d", "uuid": "linkedin|w9qvxKf7y5", "cableid": "520", "name": "Tui-Samoa", "notes": "", "systemLength": "1693", "activationDateTime": "2018-01-31T23:00:00.000Z", "urls": ["https://www.submarinenetworks.com/en/systems/australia-usa/tui-samoa", "https://www.samoaobserver.ws/category/article/18241", "https://www.samoaobserver.ws/category/samoa/9799"], "terrestrial": false, "capacityTBPS": "16", "litCapacity": [], "fiberPairs": "2", "category": "active", "facilities": [], "owners": [{"_id": "61a0a14f05fc356c38ceafba", "name": "Samoa Submarine Cable Company (SSCC)"}], "tags": "", "rgDate": "2020-05-14T06:38:45.561Z", "uDate": "2022-02-07T08:36:17.053Z", "cls": [{"_id": "5ef0637c5aa1025277a8067e", "name": "Apia,  Samoa"}, {"_id": "5ef0637c5aa1025277a80876", "name": "Leava,  Wallis and Futuna"}, {"_id": "5ef0637c5aa1025277a808cb", "name": "Mata-Utu,  Wallis and Futuna"}, {"_id": "5ef0637c5aa1025277a809fc", "name": "Savusavu,  Fiji"}, {"_id": "5ef0637c5aa1025277a80a41", "name": "Suva,  Fiji"}, {"_id": "5ef0637c5aa1025277a80a97", "name": "Tuasivi,  Samoa"}], "slug": "tui-samoa", "knownUsers": [], "cluster": {"type": "FeatureCollection", "features": [{"type": "Feature", "properties": {"name": "Apia", "id": "5ef0637c5aa1025277a8067e", "_id": "5ef0637c5aa1025277a8067e"}, "geometry": {"type": "Point", "coordinates": [-171.766684, -13.833675]}}, {"type": "Feature", "properties": {"name": "Leava", "id": "5ef0637c5aa1025277a80876", "_id": "5ef0637c5aa1025277a80876"}, "geometry": {"type": "Point", "coordinates": [-178.158108, -14.296834]}}, {"type": "Feature", "properties": {"name": "Mata-Utu", "id": "5ef0637c5aa1025277a808cb", "_id": "5ef0637c5aa1025277a808cb"}, "geometry": {"type": "Point", "coordinates": [-176.175, -13.281991]}}, {"type": "Feature", "properties": {"name": "Savusavu", "id": "5ef0637c5aa1025277a809fc", "_id": "5ef0637c5aa1025277a809fc"}, "geometry": {"type": "Point", "coordinates": [179.34975, -16.808015]}}, {"type": "Feature", "properties": {"name": "Suva", "id": "5ef0637c5aa1025277a80a41", "_id": "5ef0637c5aa1025277a80a41"}, "geometry": {"type": "Point", "coordinates": [178.437446, -18.123639]}}, {"type": "Feature", "properties": {"name": "Tuasivi", "id": "5ef0637c5aa1025277a80a97", "_id": "5ef0637c5aa1025277a80a97"}, "geometry": {"type": "Point", "coordinates": [-172.178161, -13.670589]}}]}, "networks": [], "organizations": [], "alert": 0, "RFS": "February 2018"}