{"_id": "5ebce77580771d653f9706b2", "uuid": "linkedin|w9qvxKf7y5", "cableid": "429", "name": "Venezuelan Festoon", "notes": "", "systemLength": "1137", "activationDateTime": "1997-12-31T23:00:00.000Z", "urls": ["https://web.archive.org/web/20110716064612fw_/http://www.iscpc.org/cabledb/Caribbean_Cable_db.htm"], "terrestrial": false, "capacityTBPS": "0", "litCapacity": [], "fiberPairs": "12", "category": "active", "facilities": [], "owners": [{"_id": "5ebcd71e8afb865ea6fb0514", "name": "CANTV"}], "tags": "", "rgDate": "2020-05-14T06:38:45.595Z", "uDate": "2022-05-05T07:32:09.588Z", "cls": [{"_id": "5ef0637c5aa1025277a806f0", "name": "Cabimas,  Venezuela"}, {"_id": "5ef0637c5aa1025277a806fd", "name": "Camuri,  Venezuela"}, {"_id": "5ef0637c5aa1025277a8070c", "name": "Car\u00fapano,  Venezuela"}, {"_id": "5ef0637c5aa1025277a8071a", "name": "Chichiriviche,  Venezuela"}, {"_id": "5ef0637c5aa1025277a8073b", "name": "Coro,  Venezuela"}, {"_id": "5ef0637c5aa1025277a80746", "name": "Cuman\u00e1,  Venezuela"}, {"_id": "5ef0637c5aa1025277a807d6", "name": "Higuerote,  Venezuela"}, {"_id": "5ef0637c5aa1025277a808be", "name": "Maracaibo,  Venezuela"}, {"_id": "5ef0637c5aa1025277a8096f", "name": "Porlamar,  Venezuela"}, {"_id": "5ef0637c5aa1025277a8098d", "name": "Puerto Cabello,  Venezuela"}, {"_id": "5ef0637c5aa1025277a80992", "name": "Puerto La Cruz,  Venezuela"}, {"_id": "5ef0637c5aa1025277a8099e", "name": "Punto Fijo,  Venezuela"}], "slug": "venezuelan-festoon", "knownUsers": [], "cluster": {"type": "FeatureCollection", "features": [{"type": "Feature", "properties": {"name": "Cabimas", "id": "5ef0637c5aa1025277a806f0", "_id": "5ef0637c5aa1025277a806f0"}, "geometry": {"type": "Point", "coordinates": [-71.451095, 10.395952]}}, {"type": "Feature", "properties": {"name": "Camuri", "id": "5ef0637c5aa1025277a806fd", "_id": "5ef0637c5aa1025277a806fd"}, "geometry": {"type": "Point", "coordinates": [-66.878294, 10.606108]}}, {"type": "Feature", "properties": {"name": "Car\u00fapano", "id": "5ef0637c5aa1025277a8070c", "_id": "5ef0637c5aa1025277a8070c"}, "geometry": {"type": "Point", "coordinates": [-63.250525, 10.666801]}}, {"type": "Feature", "properties": {"name": "Chichiriviche", "id": "5ef0637c5aa1025277a8071a", "_id": "5ef0637c5aa1025277a8071a"}, "geometry": {"type": "Point", "coordinates": [-68.284495, 10.928569]}}, {"type": "Feature", "properties": {"name": "Coro", "id": "5ef0637c5aa1025277a8073b", "_id": "5ef0637c5aa1025277a8073b"}, "geometry": {"type": "Point", "coordinates": [-69.677817, 11.402812]}}, {"type": "Feature", "properties": {"name": "Cuman\u00e1", "id": "5ef0637c5aa1025277a80746", "_id": "5ef0637c5aa1025277a80746"}, "geometry": {"type": "Point", "coordinates": [-64.182116, 10.454302]}}, {"type": "Feature", "properties": {"name": "Higuerote", "id": "5ef0637c5aa1025277a807d6", "_id": "5ef0637c5aa1025277a807d6"}, "geometry": {"type": "Point", "coordinates": [-66.098107, 10.480351]}}, {"type": "Feature", "properties": {"name": "Maracaibo", "id": "5ef0637c5aa1025277a808be", "_id": "5ef0637c5aa1025277a808be"}, "geometry": {"type": "Point", "coordinates": [-71.598385, 10.688213]}}, {"type": "Feature", "properties": {"name": "Porlamar", "id": "5ef0637c5aa1025277a8096f", "_id": "5ef0637c5aa1025277a8096f"}, "geometry": {"type": "Point", "coordinates": [-63.847607, 10.955253]}}, {"type": "Feature", "properties": {"name": "Puerto Cabello", "id": "5ef0637c5aa1025277a8098d", "_id": "5ef0637c5aa1025277a8098d"}, "geometry": {"type": "Point", "coordinates": [-68.00958, 10.47813]}}, {"type": "Feature", "properties": {"name": "Puerto La Cruz", "id": "5ef0637c5aa1025277a80992", "_id": "5ef0637c5aa1025277a80992"}, "geometry": {"type": "Point", "coordinates": [-64.644872, 10.202544]}}, {"type": "Feature", "properties": {"name": "Punto Fijo", "id": "5ef0637c5aa1025277a8099e", "_id": "5ef0637c5aa1025277a8099e"}, "geometry": {"type": "Point", "coordinates": [-70.204367, 11.708598]}}]}, "networks": [], "organizations": [], "alert": 0, "RFS": null}